ORDER_ID,COLLECTION_ID,DAP_DATASET_ID,DATASET_ID,PAC,PLATFORM_ID,SATELLITE_NO,SENSOR_ID,PRODUCT_TYPE,SENSOR_MODE,PRODUCT_ID,PROVIDER,ROLE,MISSION_PHASE,ORBIT,LAST_ORBIT,ORBIT_DIRECTION,TRACK,FRAME,FRAME_START,FRAME_STOP,SWATH_ID,ACROSS_POINTING_ANGLE,ALONG_POINTING_ANGLE,ELEVATION_ANGLE,AZIMUTH_ANGLE,TANGENT_HEIGHT,TANGENT_LAT,TANGENT_LONG,SOLAR_LAT,SOLAR_LONG,STAR_NAME,POLARISATION,STATION,PROJ_CENTER_X,PROJ_CENTER_Y,PROJ_CENTER_Z,ROLL,PITCH,YAW,STATUS,INTERNAL_STATUS,BEGIN_DATE,BEGIN_MSEC,END_DATE,END_MSEC,SCAN_LINE_POINTS,VERTICAL_COVERAGE_MIN_HEIGHT,VERTICAL_COVERAGE_MAX_HEIGHT,REGION_ID,LINES,PROCESSING_LEVEL,BAND_NAME,BAND_GAIN,BAND_QUALITY,BAND_MODE,PROCESSING_TYPE,PROCESSING_DATE_TIME,PROCESSING_CENTRE,PROCESSING_CODE,SCENE_SELECTION_TYPE,SEL_SCENE_CENTRE_LAT,SEL_SCENE_CENTRE_LONG,SUB_SCENE_ID,ALONG_SHIFT,ALONG_SHIFT_UNIT_ID,ALONG_SIZE,ALONG_SIZE_UNIT_ID,SCENE_SELECTION_BEGIN_DATE,SCENE_SELECTION_BEGIN_MSEC,SCENE_SELECTION_END_DATE,SCENE_SELECTION_END_MSEC,PROCESSING_ALGORITHM_VER,URL,IMAGE_QUALITY_CODE,WARNING_MESSAGE,VALIDITY_FIELD,NOTIFICATION_FILE_NAME,LAST_UPDATE,DATASET_URL,PAC_3CC,STATION_3CC,METADATA_FILENAME,CREATION_DATE,INGESTION_DATE,LA_SIZE,LA_VIDEO_FORMAT,LA_HOR_SHIFT,LA_ACQ_VOTE,LA_SATUR_VOTE,LA_COMPRESSION_MODE,LA_EARTH_ROTATION_CORRECTION,LA_POINTING_CHANGE_FLAG,LA_VIEW_EXACT_ANGLE,LA_GAIN_STATUS,LA_EXPOSURE_COEFF_STATUS,LA_REV_CORRECTION,LA_PERPENDICULAR_DISTANCE,LA_PARALLEL_DISTANCE,LA_GRID_SPACING,LA_COMMAND_LINE_PARAMETERS,LA_SOURCE_FILETYPE,LA_RESOLUTION,LA_OCC_DURATION,LA_OCC_NUMBER,POLYGON_STORED,SCENE_CENTRE_STORED
,BJ01_SLIM_6_SL6_32S_1T,DAP_MG2_25/DC00/ConfluencePoints,urn:eop:BJ01:DAP_MG2_25%2FDC00%2FConfluencePoints:BJ01_SL6_32S_1T_20090906T070435_20090906T070526_DMC_0_0b7a,CDS,BJ01,?,SLIM-6,SL6_32S_1T,NA,NA,DMCii,002,,0,,,,,,,,,,,,,,,,,,UNDEFINED,,,,,,,,001,PR,06-SEP-2009 07:05:01,0,06-SEP-2009 07:06:01,0,,,,,,,,,,,,22-SEP-2011 13:49:28,,,,,,,,,,,,,,,,,,,10.3.182363,GSC#AR#ESA#DAP_MG2_25#20090906#235951.xml,06-DEC-2010 10:03:02,,,,,,,,,,,,,,,,,,,,,,,,,,,13.38 43.76 12.94 40.65 9.89 41.34 10.32 44.42 13.38 43.76 ,
,RE00_MSI_MSI_IMG_3A,DAP_MG2_12/RE00/KP/Sinuiju,urn:eop:RE00:DAP_MG2_12:4647021,CDS,RE00,?,MSI,MSI_IMG_3A,NA,NA,RapidEye,002,,0,,,,,,,,,,,,,,,,,,,,,,,,,,001,PR,05-OCT-2010 03:36:56,0,05-OCT-2010 03:37:27,0,,,,,,,,,,,,05-OCT-2011 17:12:48,,,,,,,,,,,,,,,,,,,8.26.92751,GSC#AR#ESA#DAP_MG2_12#20101005#033722.xml,28-JUN-2011 15:17:01,,,,,,,,,,,,,,,,,,,,,,,,,,,40.11 123.83 39.88 123.83 39.88 124.12 40.1 124.13 40.11 123.83 ,
,RS02_SAR_SAR_SN_SGF,DAP_MG1_08/RS02/BalticSea,urn:eop:RS02:DAP_MG1_08:RS2_20110327_161555_0045_SCNA_HH_SGF_125810_3456_5002509,CDS,RS02,?,SAR,SAR_SN_SGF,ScanSAR Narrow,NA,TRS_GSI,002,,17137,,,,,,,SCNA,,,,,,,,,,,HH,,,,,,,,001,PR,27-MAR-2011 16:15:54,830,27-MAR-2011 16:16:40,280,,,,,,,,,,,,27-SEP-2011 15:42:28,,,,,,,,,,,,,,,,,,,7.22.92274,GSC#AR#ESA#DAP_MG1_08#20110327#162835.xml,27-MAR-2011 16:31:02,,,,,,,,,,,,,,,,,,,,,,,,,,,60.04 15.69 60.68 21.33 58.02 22.3 57.41 17.06 60.04 15.69 ,59.1 19.18
,RS02_SAR_SAR_SW_SGF,DAP_MG1_12/RS02/Eurarctic1,urn:eop:RS02:DAP_MG1_12:RS2_20091005_075434_0080_SCWA_HHHV_SCW_54714_0000_2576781,CDS,RS02,?,SAR,SAR_SW_SGF,ScanSAR Wide,NA,TRS_GSI,002,,9443,,,,,,,SCWA,,,,,,,,,,,HH, HV,,,,,,,,001,PR,05-OCT-2009 07:54:34,500,05-OCT-2009 07:55:53,800,,,,,,,,,,,,13-SEP-2011 16:10:05,,,,,,,,,,,,,,,,,,,4.19.91211,GSC#AR#ESA#DAP_MG1_12#20100414#102504.xml,14-APR-2010 10:25:04,,,,,,,,,,,,,,,,,,,,,,,,,,,82.81 -15.8 80.56 12.96 76.66 -1.75 78.21 -22.08 82.81 -15.8 ,79.92 -4.2
,UK02_SLIM6_22_SL6_22S_1T,DAP_MG2_25/DC00/Congo,urn:eop:UK02:DAP_MG2_25:UK02_SL6_22S_1T_20100111T090737_20100111T090827_DMC_0_014e,CDS,UK02,?,SLIM6-22,SL6_22S_1T,NA,NA,DMCii,002,,0,,,,,,,,,,,,,,,,,,UNDEFINED,,,,,,,,001,PR,11-JAN-2010 09:08:02,0,11-JAN-2010 09:09:02,0,,,,,,,,,,,,09-OCT-2011 00:55:02,,,,,,,,,,,,,,,,,,,10.19.184803,GSC#AR#ESA#DAP_MG2_25#20100111#090802.xml,08-JUL-2011 14:27:01,,,,,,,,,,,,,,,,,,,,,,,,,,,3.08 21.89 2.57 18.99 -0.42 19.55 0.08 22.47 3.08 21.89 ,
,RS02_SAR_SAR_SW_SGF,DAP_MG1_08/RS02/BalticSea,urn:eop:RS02:DAP_MG1_08:RS2_20091202_044612_0080_SCWA_HH_SCW_61641_0000_2745765,CDS,RS02,?,SAR,SAR_SW_SGF,ScanSAR Wide,NA,TRS_GSI,002,,10270,,,,,,,SCWA,,,,,,,,,,,HH,,,,,,,,001,PR,02-DEC-2009 04:46:12,240,02-DEC-2009 04:47:31,60,,,,,,,,,,,,13-SEP-2011 16:42:36,,,,,,,,,,,,,,,,,,,5.9.91158,GSC#AR#ESA#DAP_MG1_08#20100414#103149.xml,14-APR-2010 10:31:49,,,,,,,,,,,,,,,,,,,,,,,,,,,66.33 20.89 65.32 32.19 60.8 29.19 61.72 19.54 66.33 20.89 ,63.72 25.91
,RS02_SAR_SAR_SW_SGF,DWH_MG1_CORE_11/RS02/Eurarctic,urn:eop:RS02:DWH_MG1_CORE_11:RS2_20110913_052350_0076_SCWA_HHHV_SGF_154154_8343_6511552,CDS,RS02,?,SAR,SAR_SW_SGF,ScanSAR Wide,NA,TRS_GSI,002,,19560,,,,,,,SCWA,,,,,,,,,,,HH, HV,,,,,,,,001,PR,13-SEP-2011 05:23:49,840,13-SEP-2011 05:25:05,480,,,,,,,,,,,,26-OCT-2011 15:05:53,,,,,,,,,,,,,,,,,,,4.29.94751,GSC#AR#ESA#DWH_MG1_CORE_11#20110913#055413.xml,26-OCT-2011 15:19:05,,,,,,,,,,,,,,,,,,,,,,,,,,,82.49 21.32 80.31 49.37 76.56 35.82 78.1 15.62 82.49 21.32 ,79.72 32.99
,RS02_SAR_SAR_SW_SGF,DAP_MG1_08/RS02/BalticSea,urn:eop:RS02:DAP_MG1_08:RS2_20100103_154216_0080_SCWA_HH_SCW_65487_0000_2833031,CDS,RS02,?,SAR,SAR_SW_SGF,ScanSAR Wide,NA,TRS_GSI,002,,10734,,,,,,,SCWA,,,,,,,,,,,HH,,,,,,,,001,PR,03-JAN-2010 15:42:17,240,03-JAN-2010 15:43:36,60,,,,,,,,,,,,13-SEP-2011 17:15:05,,,,,,,,,,,,,,,,,,,6.30.91142,GSC#AR#ESA#DAP_MG1_08#20100414#103730.xml,14-APR-2010 10:37:30,,,,,,,,,,,,,,,,,,,,,,,,,,,62.54 22.66 63.49 32.87 58.89 34.11 57.99 25.23 62.54 22.66 ,60.92 29.01
,UK01_SLIM_6_SL6_32T_1T,DAP_MG2_25/DC00/ConfluencePoints,urn:eop:UK01:DAP_MG2_25%2FDC00%2FConfluencePoints:UK01_SL6_32T_1T_20090818T082431_20090818T082508_DMC_0_0f75,CDS,UK01,?,SLIM-6,SL6_32T_1T,NA,NA,DMCii,002,,0,,,,,,,,,,,,,,,,,,UNDEFINED,,,,,,,,001,PR,18-AUG-2009 08:24:50,0,18-AUG-2009 08:25:50,0,,,,,,,,,,,,22-SEP-2011 22:22:26,,,,,,,,,,,,,,,,,,,3.26.91786,GSC#AR#ESA#DAP_MG2_25#20090818#082450.xml,06-DEC-2010 14:29:01,,,,,,,,,,,,,,,,,,,,,,,,,,,18.46 9.86 17.97 6.72 15.74 7.22 16.23 10.32 18.46 9.86 ,
,SP05_HRG_HRG_THX__3,DAP_MG2b_01/Madrid/UTM-WGS84,urn:eop::DAP_MG2b_01:00182757007,CDS,SP05,?,HRG,HRG_THX__3,NA,NA,SpotImage,002,,0,,,,,,,,,,,,,,,,,,,,,,,,,,001,PR,07-AUG-2006 11:19:55,0,07-AUG-2006 11:19:55,0,,,,,,,,,,,,13-JUN-2012 08:59:55,,,,,,,,,,,,,,,,,,,7.29.120217,GSC#AR#ESA#DAP_MG2b_01#20090203#105859.xml,18-JUL-2012 09:24:32,,,,,,,,,,,,,,,,,,,,,,,,,,,40.682 -4.394 40.533 -3.691 40.011 -3.882 40.159 -4.58 40.682 -4.394 ,
,SP04_HRVIR_HIR_I____3,DAP_MG2-3_01/IE/Coverage_1,urn:eop::DAP_MG2-3_01:40102400909121208091I0,CDS,SP04,?,HRVIR,HIR_I____3,NA,NA,SpotImage,002,,0,,,,,,,,,,,,,,,,,,,,,,,,,,001,PR,12-SEP-2009 12:08:08,0,12-SEP-2009 12:08:08,0,,,,,,,,,,,,04-MAY-2012 08:42:01,,,,,,,,,,,,,,,,,,,1.7.114574,GSC#AR#ESA#DAP_MG2-3_01#20110214#171943.xml,18-JUL-2012 09:24:32,,,,,,,,,,,,,,,,,,,,,,,,,,,54.472 -10.082 53.967 -10.409 53.764 -9.399 54.266 -9.061 54.472 -10.082 ,
,TX011_X_SAR_SAR_SM_SSC,DAP_MG1_17/TX01/IT/Messina_Strait,urn:eop:DLR:TSX-1.SAR.L1B:////TSX-1/SAR/L1B/NSG/TMSP/2011-04-13T05:11:50.48204/2011-04-13T05:11:58.48198/SSC/UNDEFINED/OPER_01_01,CDS,TX01,1,X-SAR,SAR_SM_SSC,SM,NA,Infoterra,002,,21226,,,,,,,strip_004,,,,,,,,,,,HH,,,,,,,,001,PR,13-APR-2011 05:11:50,482,13-APR-2011 05:11:58,481,,,,,,,,,,,,28-SEP-2011 02:25:32,,,,,,,,,,,,,,,,,,,3.2.92122,GSC#AR#ESA#DAP_MG1_17#20110418#142819.xml,18-APR-2011 15:58:02,,,,,,,,,,,,,,,,,,,,,,,,,,,38.4619 15.4185 37.9621 15.2838 37.9042 15.6638 38.4056 15.79 38.4619 15.4185 ,
,RS02_SAR_SAR_SW_SGF,DWH_MG1_CORE_11/RS02/GL/East_Coast,urn:eop:RS02:DWH_MG1_CORE_11:RS2_OK22805_PK236740_DK219608_SCWA_20110825_080046_HH_HV_SGF,CDS,RS02,?,SAR,SAR_SW_SGF,ScanSAR Wide,NA,MDA_GSI,002,,19290,,,,,,,SCWA,,,,,,,,,,,HH, HV,,,,,,,,001,PR,25-AUG-2011 08:00:46,760,25-AUG-2011 08:02:03,250,,,,,,,,,,,,12-OCT-2011 02:41:58,,,,,,,,,,,,,,,,,,,7.11.93433,GSC#AR#ESA#DWH_MG1_CORE_11#20110825#125219.xml,25-AUG-2011 16:01:02,,,,,,,,,,,,,,,,,,,,,,,,,,,76.89 -23.97 72.44 -26.38 71.25 -11.62 75.43 -5.05 76.89 -23.97 ,74 16.75
,RS02_SAR_SAR_Sx_SLC,DAP_MG1_17/RS02/IT/Messina_Strait,urn:eop:RS02:DAP_MG1_17:RS2_OK17912_PK186061_DK176234_S3_20101020_050233_HH_HV_SLC,CDS,RS02,?,SAR,SAR_Sx_SLC,Standard,NA,MDA_GSI,002,,14872,,,,,,,S3,,,,,,,,,,,HH, HV,,,,,,,,001,PR,20-OCT-2010 05:02:33,90,20-OCT-2010 05:02:50,160,,,,,,,,,,,,20-SEP-2011 09:00:56,,,,,,,,,,,,,,,,,,,10.11.182080,GSC#AR#ESA#DAP_MG1_17#20110116#004704.xml,17-JAN-2011 10:25:02,,,,,,,,,,,,,,,,,,,,,,,,,,,38.73 15.57 37.74 15.34 37.55 16.56 38.55 16.81 38.73 15.57 ,38.14 16.07
,SP04_HRVIR_HIR_I____3,DAP_MG2_07/Guadalquivir/2010/Coverage_4/SP00,urn:eop::DAP_MG2_07:40312741012031102512I0,CDS,SP04,?,HRVIR,HIR_I____3,NA,NA,SpotImage,002,,0,,,,,,,,,,,,,,,,,,,,,,,,,,001,PR,03-DEC-2010 11:02:51,0,03-DEC-2010 11:02:51,0,,,,,,,,,,,,03-MAY-2012 07:22:28,,,,,,,,,,,,,,,,,,,9.30.114465,GSC#AR#ESA#DAP_MG2_07#20110128#022431.xml,18-JUL-2012 09:24:32,,,,,,,,,,,,,,,,,,,,,,,,,,,38.152 -6.293 37.627 -6.461 37.522 -5.794 38.046 -5.622 38.152 -6.293 ,
,RS02_SAR_SAR_SW_SGF,DAP_MG1_12/RS02/Eurarctic1,urn:eop:RS02:DAP_MG1_12:RS2_20110125_074159_0076_SCWA_HHHV_SGF_117148_1729_4590555,CDS,RS02,?,SAR,SAR_SW_SGF,ScanSAR Wide,NA,TRS_GSI,002,,16260,,,,,,,SCWA,,,,,,,,,,,HH, HV,,,,,,,,001,PR,25-JAN-2011 07:41:59,230,25-JAN-2011 07:43:15,530,,,,,,,,,,,,20-SEP-2011 09:36:23,,,,,,,,,,,,,,,,,,,9.23.93005,GSC#AR#ESA#DAP_MG1_12#20110125#080144.xml,25-JAN-2011 08:01:44,,,,,,,,,,,,,,,,,,,,,,,,,,,83.37 -11.42 80.99 18.73 77.33 3.07 78.95 -18.35 83.37 -11.42 ,80.53 0.78
,DE01_SLIM6_22_SL6_22S_1T,DAP_MG2_25/DC00/Congo,urn:eop:DE01:DAP_MG2_25:DE00202fs_L1T,CDS,DE01,?,SLIM6-22,SL6_22S_1T,NA,NA,DMCii,002,,0,,,,,,,,,,,,,,,,,,UNDEFINED,,,,,,,,001,PR,13-AUG-2010 09:50:31,0,13-AUG-2010 09:51:31,0,,,,,,,,,,,,09-OCT-2011 05:37:11,,,,,,,,,,,,,,,,,,,7.14.93166,GSC#AR#ESA#DAP_MG2_25#20100813#095031.xml,12-JUL-2011 12:27:01,,,,,,,,,,,,,,,,,,,,,,,,,,,-2.04 12.9 -2.81 9.85 -6.72 10.82 -6.05 13.87 -2.04 12.9 ,
,DE01_SLIM6_22_SL6_22S_1T,DAP_MG2_25/DC00/Sub-Sahara,urn:eop:DE01:DAP_MG2_25:DE01_SL6_22S_1T_20100825T092950_20100825T093106_DMI_0_20e6-CP_1113,CDS,DE01,?,SLIM6-22,SL6_22S_1T,NA,NA,DMCii,002,,0,,,,,,,,,,,,,,,,,,UNDEFINED,,,,,,,,001,PR,25-AUG-2010 09:30:28,0,25-AUG-2010 09:31:28,0,,,,,,,,,,,,10-OCT-2011 15:31:28,,,,,,,,,,,,,,,,,,,10.0.185076,GSC#AR#ESA#DAP_MG2_25#20100825#093028.xml,18-JUL-2011 08:45:02,,,,,,,,,,,,,,,,,,,,,,,,,,,-16.66 14.02 -17.37 10.99 -20.39 11.71 -19.66 14.8 -16.66 14.02 ,
,RE00_MSI_MSI_IMG_3A,DAP_MG2_16/RE00/ZW/City_of_Harare,urn:eop:RE00:DAP_MG2_16:1556387,CDS,RE00,?,MSI,MSI_IMG_3A,NA,NA,RapidEye,002,,0,,,,,,,,,,,,,,,,,,UNDEFINED,,,,,,,,001,PR,23-AUG-2009 09:02:31,0,23-AUG-2009 09:02:52,0,,,,,,,,,,,,17-SEP-2011 01:38:58,,,,,,,,,,,,,,,,,,,5.29.91435,GSC#AR#ESA#DAP_MG2_16#20090823#090239.xml,29-NOV-2010 12:08:01,,,,,,,,,,,,,,,,,,,,,,,,,,,-17.56 30.73 -17.79 30.73 -17.79 30.96 -17.56 30.96 -17.56 30.73 ,
,RS02_SAR_SAR_SW_SGF,DAP_MG1_12/RS02/Eurarctic1,urn:eop:RS02:DAP_MG1_12:RS2_20100830_075953_0080_SCWA_HHHV_SCW_95955_0000_4015290,CDS,RS02,?,SAR,SAR_SW_SGF,ScanSAR Wide,NA,TRS_GSI,002,,14145,,,,,,,SCWA,,,,,,,,,,,HH, HV,,,,,,,,001,PR,30-AUG-2010 07:59:53,770,30-AUG-2010 08:01:09,180,,,,,,,,,,,,14-SEP-2011 19:39:48,,,,,,,,,,,,,,,,,,,2.22.91424,GSC#AR#ESA#DAP_MG1_12#20100830#083532.xml,30-AUG-2010 08:35:32,,,,,,,,,,,,,,,,,,,,,,,,,,,79.46 -21.67 77.75 0.63 73.75 -8.27 75.07 -25.08 79.46 -21.67 ,76.82 -11.96
,NG01_SLIM_6_SL6_32T_1T,DAP_MG2_25/DC00/Chad,urn:eop:NG01:DAP_MG2_25%2FDC00%2FChad:NG01_SL6_32T_1T_20091110T071553_20091110T071630_DMC_0_0941,CDS,NG01,?,SLIM-6,SL6_32T_1T,NA,NA,DMCii,002,,0,,,,,,,,,,,,,,,,,,UNDEFINED,,,,,,,,001,PR,10-NOV-2009 07:16:12,0,10-NOV-2009 07:17:12,0,,,,,,,,,,,,22-SEP-2011 19:04:25,,,,,,,,,,,,,,,,,,,1.13.91841,GSC#AR#ESA#DAP_MG2_25#20091110#071612.xml,06-DEC-2010 19:21:01,,,,,,,,,,,,,,,,,,,,,,,,,,,15.7 25.84 15.13 22.72 12.86 23.21 13.44 26.3 15.7 25.84 ,
,RS02_SAR_SAR_SW_SGF,DWH_MG1_CORE_11/RS02/GL_Contingency,urn:eop:RS02:DWH_MG1_CORE_11:RS2_OK29803_PK294830_DK265467_SCWA_20120601_093957_HH_SGF,CDS,RS02,?,SAR,SAR_SW_SGF,ScanSAR Wide,NA,MDA_GSI,002,,23307,,,,,,,SCWA,,,,,,,,,,,HH,,,,,,,,001,PR,01-JUN-2012 09:39:57,570,01-JUN-2012 09:41:13,580,,,,,,,,,,,,01-JUN-2012 11:46:03,,,,,,,,,,,,,,,,,,,7.17.119098,GSC#AR#ESA#DWH_MG1_CORE_11#20120601#101222.xml,01-JUN-2012 12:21:55,,,,,,,,,,,,,,,,,,,,,,,,,,,83.12 59.71 80.36 85.32 82.58 113.9 86.78 96.52 83.12 59.71 ,83.21 88.86
,RS02_SAR_SAR_SW_SGF,DWH_MG1_CORE_11/RS02/BalticSea,urn:eop:RS02:DWH_MG1_CORE_11:RS2_20120515_044223_0075_SCWA_HHHV_SGF_196867_5710_7350764,CDS,RS02,?,SAR,SAR_SW_SGF,ScanSAR Wide,NA,TRS_GSI,002,,23061,,,,,,,SCWA,,,,,,,,,,,HH, HV,,,,,,,,001,PR,15-MAY-2012 04:42:23,340,15-MAY-2012 04:43:38,790,,,,,,,,,,,,15-MAY-2012 05:07:51,,,,,,,,,,,,,,,,,,,10.22.223803,GSC#AR#ESA#DWH_MG1_CORE_11#20120515#050604.xml,15-MAY-2012 05:08:26,,,,,,,,,,,,,,,,,,,,,,,,,,,66.17 21.88 65.18 33.09 60.84 30.23 61.77 20.59 66.17 21.88 ,63.67 26.9
,RE00_MSI_MSI_IMG_3A,DAP_MG2_10/RE00/HT/Haiti,urn:eop:RE00:DAP_MG2_10:3593280,CDS,RE00,?,MSI,MSI_IMG_3A,NA,NA,RapidEye,002,,0,,,,,,,,,,,,,,,,,,,,,,,,,,001,PR,28-JAN-2010 16:14:08,0,28-JAN-2010 16:14:51,0,,,,,,,,,,,,03-OCT-2011 23:29:25,,,,,,,,,,,,,,,,,,,6.8.92583,GSC#AR#ESA#DAP_MG2_10#20100128#161445.xml,24-JUN-2011 08:04:02,,,,,,,,,,,,,,,,,,,,,,,,,,,18.23 -73.41 18 -73.41 18 -73.18 18.22 -73.17 18.23 -73.41 ,
,RS02_SAR_SAR_SW_SGF,DAP_MG1_08/RS02/BalticSea,urn:eop:RS02:DAP_MG1_08:RS2_20101220_051536_0078_SCWA_HH_SGF_112534_0839_4401445,CDS,RS02,?,SAR,SAR_SW_SGF,ScanSAR Wide,NA,TRS_GSI,002,,15744,,,,,,,SCWA,,,,,,,,,,,HH,,,,,,,,001,PR,20-DEC-2010 05:15:36,50,20-DEC-2010 05:16:53,770,,,,,,,,,,,,19-SEP-2011 16:15:42,,,,,,,,,,,,,,,,,,,10.6.181970,GSC#AR#ESA#DAP_MG1_08#20101220#081933.xml,20-DEC-2010 08:19:33,,,,,,,,,,,,,,,,,,,,,,,,,,,66.95 13.74 65.93 25.33 61.48 22.25 62.41 12.37 66.95 13.74 ,64.38 18.91
,UK02_SLIM6_22_SL6_22S_1T,DAP_MG2_25/DC00/Sub-Sahara,urn:eop:UK02:DAP_MG2_25:UK02_SL6_22S_1T_20100314T093325_20100314T093415_DMC_0_01e1,CDS,UK02,?,SLIM6-22,SL6_22S_1T,NA,NA,DMCii,002,,0,,,,,,,,,,,,,,,,,,UNDEFINED,,,,,,,,001,PR,14-MAR-2010 09:33:50,0,14-MAR-2010 09:34:50,0,,,,,,,,,,,,09-OCT-2011 00:40:30,,,,,,,,,,,,,,,,,,,1.9.93075,GSC#AR#ESA#DAP_MG2_25#20100314#093350.xml,12-JUL-2011 15:00:01,,,,,,,,,,,,,,,,,,,,,,,,,,,-16.82 34.68 -17.03 33.21 -20.07 33.92 -19.87 35.41 -16.82 34.68 ,
,SP05_HRG_HRG_J____3,DAP_MG2b_02/Kobenhagen/UTM-WGS84,urn:eop:SPOT:DAP_MG2b_02:50532360909201049052J0-HRG_J____3,CDS,SP05,?,HRG,HRG_J____3,NA,NA,SpotImage,002,,0,,,,,,,,,,,,,,,,,,,,,,,,,,001,PR,20-SEP-2009 10:49:05,0,20-SEP-2009 10:49:05,0,,,,,,,,,,,,29-JUN-2012 11:22:24,,,,,,,,,,,,,,,,,,,3.28.120093,GSC#AR#ESA#DAP_MG2b_02#20100406#060955.xml,29-JUN-2012 11:43:03,,,,,,,,,,,,,,,,,,,,,,,,,,,56.338 11.945 56.098 12.999 55.598 12.627 55.836 11.583 56.338 11.945 ,
,RS02_SAR_SAR_SW_SGF,DAP_MG1_37/OTHER/CALLID_EMSA_007_01,urn:eop:RS02:DAP_MG1_37:RS2_OK19466_PK202715_DK189981_SCWA_20110323_051130_HH_SGF,CDS,RS02,?,SAR,SAR_SW_SGF,ScanSAR Wide,NA,MDA_GSI,002,,17073,,,,,,,SCWA,,,,,,,,,,,HH,,,,,,,,001,PR,23-MAR-2011 05:11:30,880,23-MAR-2011 05:12:46,430,,,,,,,,,,,,27-SEP-2011 12:48:39,,,,,,,,,,,,,,,,,,,10.30.183020,GSC#AR#ESA#DAP_MG1_37#20110323#110048.xml,23-MAR-2011 11:00:48,,,,,,,,,,,,,,,,,,,,,,,,,,,37.09 10.23 32.63 9.36 31.76 14.82 36.23 15.99 37.09 10.23 ,34.43 12.6
,NG01_SLIM_6_SL6_32T_1T,DAP_MG2_25/DC00/Sudan,urn:eop:NG01:DAP_MG2_25%2FDC00%2FSudan:NG01_SL6_32T_1T_20091128T065510_20091128T065547_DMC_0_0965,CDS,NG01,?,SLIM-6,SL6_32T_1T,NA,NA,DMCii,002,,0,,,,,,,,,,,,,,,,,,UNDEFINED,,,,,,,,001,PR,28-NOV-2009 06:55:29,0,28-NOV-2009 06:56:29,0,,,,,,,,,,,,19-SEP-2011 09:36:39,,,,,,,,,,,,,,,,,,,9.10.92958,GSC#AR#ESA#DAP_MG2_25#20091128#065529.xml,07-DEC-2010 11:52:01,,,,,,,,,,,,,,,,,,,,,,,,,,,8.55 31.56 7.94 28.51 5.66 28.99 6.29 32.02 8.55 31.56 ,
,TX011_X_SAR_SAR_SL_SSC,DAP_MG1_18/TX01/IT/Gimigliano,urn:eop:DLR:TSX-1.SAR.L1B:////TDX-1/SAR/L1B/NSG/TMSP/2011-01-28T16:48:58.22847/2011-01-28T16:48:59.70026/SSC/UNDEFINED/OPER_TDX_01,CDS,TX01,1,X-SAR,SAR_SL_SSC,SL,NA,Infoterra,002,,3365,,,,,,,spot_056,,,,,,,,,,,HH,,,,,,,,001,PR,28-JAN-2011 16:48:58,228,28-JAN-2011 16:48:59,700,,,,,,,,,,,,21-SEP-2011 09:23:06,,,,,,,,,,,,,,,,,,,10.8.182200,GSC#AR#ESA#DAP_MG1_18#20110202#204956.xml,02-FEB-2011 21:42:02,,,,,,,,,,,,,,,,,,,,,,,,,,,38.9195 16.626 39.0125 16.6114 38.9956 16.4821 38.9022 16.4938 38.9195 16.626 ,
,RS02_SAR_SAR_SW_SGF,DAP_MG1_08/RS02/BalticSea,urn:eop:RS02:DAP_MG1_08:RS2_20100219_161117_0080_SCWA_HH_SCW_70815_0000_2936107,CDS,RS02,?,SAR,SAR_SW_SGF,ScanSAR Wide,NA,TRS_GSI,002,,11406,,,,,,,SCWA,,,,,,,,,,,HH,,,,,,,,001,PR,19-FEB-2010 16:11:17,650,19-FEB-2010 16:12:37,290,,,,,,,,,,,,14-SEP-2011 12:23:51,,,,,,,,,,,,,,,,,,,3.32.91187,GSC#AR#ESA#DAP_MG1_08#20100414#104951.xml,14-APR-2010 10:49:51,,,,,,,,,,,,,,,,,,,,,,,,,,,61.23 16.09 62.17 25.87 57.51 27.08 56.63 18.53 61.23 16.09 ,59.56 22.16
,RS02_SAR_SAR_SW_SGF,DWH_MG1_CORE_11/RS02/BalticSea,urn:eop:RS02:DWH_MG1_CORE_11:RS2_20120411_043519_0076_SCWA_HHHV_SGF_190566_4565_7304554,CDS,RS02,?,SAR,SAR_SW_SGF,ScanSAR Wide,NA,TRS_GSI,002,,22575,,,,,,,SCWA,,,,,,,,,,,HH, HV,,,,,,,,001,PR,11-APR-2012 04:35:18,600,11-APR-2012 04:36:34,150,,,,,,,,,,,,11-APR-2012 05:13:05,,,,,,,,,,,,,,,,,,,3.2.112541,GSC#AR#ESA#DWH_MG1_CORE_11#20120411#051037.xml,11-APR-2012 05:13:37,,,,,,,,,,,,,,,,,,,,,,,,,,,61.42 22.68 60.49 32.22 56.12 29.97 57 21.55 61.42 22.68 ,58.91 26.93
,RS02_SAR_SAR_SW_SGF,DWH_MG1_CORE_11/RS02/Eurarctic_Contingency,urn:eop:RS02:DWH_MG1_CORE_11:RS2_20120614_050330_0075_SCWA_HHHV_SGF_202199_7131_7492473,CDS,RS02,?,SAR,SAR_SW_SGF,ScanSAR Wide,NA,TRS_GSI,002,,23490,,,,,,,SCWA,,,,,,,,,,,HH, HV,,,,,,,,001,PR,14-JUN-2012 05:03:29,760,14-JUN-2012 05:04:45,200,,,,,,,,,,,,14-JUN-2012 05:54:46,,,,,,,,,,,,,,,,,,,3.9.118413,GSC#AR#ESA#DWH_MG1_CORE_11#20120614#055321.xml,14-JUN-2012 05:55:19,,,,,,,,,,,,,,,,,,,,,,,,,,,80.32 23.29 78.51 46.95 74.57 37.03 75.93 19.44 80.32 23.29 ,77.65 33.49
,DE01_SLIM6_22_SL6_22P_1T,DAP_MG2_25/DC00/Sub-Sahara,urn:eop:DE01:DAP_MG2_25:DE01_SL6_22P_1T_20091128T080432_20091128T080514_DMI_0_1575-CP_729,CDS,DE01,?,SLIM6-22,SL6_22P_1T,NA,NA,DMCii,002,,0,,,,,,,,,,,,,,,,,,UNDEFINED,,,,,,,,001,PR,28-NOV-2009 08:04:53,0,28-NOV-2009 08:05:53,0,,,,,,,,,,,,11-OCT-2011 08:36:48,,,,,,,,,,,,,,,,,,,5.0.93258,GSC#AR#ESA#DAP_MG2_25#20091128#080453.xml,19-JUL-2011 12:36:02,,,,,,,,,,,,,,,,,,,,,,,,,,,3.27 19.38 2.85 16.32 -0.19 16.96 0.23 20.01 3.27 19.38 ,
,SP05_HRG_HRG_J____3,DAP_MG2b_01/Munchen/UTM-WGS84,urn:eop:SPOT:DAP_MG2b_01:00182784011,CDS,SP05,?,HRG,HRG_J____3,NA,NA,SpotImage,002,,0,,,,,,,,,,,,,,,,,,,,,,,,,,001,PR,04-MAY-2006 10:03:34,0,04-MAY-2006 10:03:34,0,,,,,,,,,,,,20-JUN-2012 13:27:26,,,,,,,,,,,,,,,,,,,3.12.119187,GSC#AR#ESA#DAP_MG2b_01#20090204#132718.xml,20-JUN-2012 13:38:58,,,,,,,,,,,,,,,,,,,,,,,,,,,48.803 11.12 48.663 12.049 48.139 11.869 48.278 10.95 48.803 11.12 ,
,ER02_AMI_SAR_IM__0P,DWH_MG1_AQUA_ADD_013b/ER00/GL/Greenland,urn:eop:ER02:DWH_MG1_AQUA_ADD_013b:ER02_SAR_IM__0P_19960217T140044_19960217T140101_UPA_04330_0000.ESA.tar,CDS,ER02,?,AMI,SAR_IM__0P,NA,NA,ESA,002,,4330,,,,,,,,,,,,,,,,,,UNDEFINED,,,,,,,,001,PR,17-FEB-1996 14:00:44,200,17-FEB-1996 14:01:01,580,,,,,,,,,,,,31-AUG-2012 02:05:19,,,,,,,,,,,,,,,,,,,1.18.127541,GSC#AR#ESA#DWH_MG1_AQUA_ADD_013b#20120830#091128.xml,31-AUG-2012 03:11:43,,,,,,,,,,,,,,,,,,,,,,,,,,,65.77 -38.93 66.76 -38.14 66.91 -39.25 67.02 -40.26 66.03 -40.97 65.91 -40.01 65.77 -38.93 ,
,SP05_HRG_HRG_T____3,DAP_MG2b_01/Kobenhavn/UTM-WGS84,urn:eop:SPOT:DAP_MG2b_01:00182781003,CDS,SP05,?,HRG,HRG_T____3,NA,NA,SpotImage,002,,0,,,,,,,,,,,,,,,,,,,,,,,,,,001,PR,25-SEP-2006 10:32:40,0,25-SEP-2006 10:32:40,0,,,,,,,,,,,,20-JUN-2012 14:22:21,,,,,,,,,,,,,,,,,,,9.24.119466,GSC#AR#ESA#DAP_MG2b_01#20090203#173000.xml,20-JUN-2012 14:53:32,,,,,,,,,,,,,,,,,,,,,,,,,,,56.311 11.642 56.143 12.564 55.631 12.26 55.797 11.349 56.311 11.642 ,
,RE00_MSI_MSI_IMG_1B,DAP_MG2_18/RE00/CD/Numbi,urn:eop:RE00:DAP_MG2_18:1741308,CDS,RE00,?,MSI,MSI_IMG_1B,NA,NA,RapidEye,002,,0,,,,,,,,,,,,,,,,,,UNDEFINED,,,,,,,,001,PR,22-SEP-2009 09:26:47,0,22-SEP-2009 09:27:08,0,,,,,,,,,,,,15-SEP-2011 14:25:30,,,,,,,,,,,,,,,,,,,8.31.91313,GSC#AR#ESA#DAP_MG2_18#20090922#092657.xml,29-NOV-2010 11:32:01,,,,,,,,,,,,,,,,,,,,,,,,,,,-1.32 28.39 -1.91 28.27 -2.02 29.03 -1.42 29.15 -1.32 28.39 ,
,SP05_HRG_HRG_J____3,DAP_MG2b_02/Vilnius/UTM-WGS84,urn:eop:SPOT:DAP_MG2b_02:50812380908030930382J0-HRG_J____3,CDS,SP05,?,HRG,HRG_J____3,NA,NA,SpotImage,002,,0,,,,,,,,,,,,,,,,,,,,,,,,,,001,PR,03-AUG-2009 09:30:38,0,03-AUG-2009 09:30:38,0,,,,,,,,,,,,29-JUN-2012 11:16:35,,,,,,,,,,,,,,,,,,,11.10.12793,GSC#AR#ESA#DAP_MG2b_02#20100407#052458.xml,29-JUN-2012 11:30:20,,,,,,,,,,,,,,,,,,,,,,,,,,,55.385 25.395 55.223 26.298 54.709 26.01 54.87 25.118 55.385 25.395 ,
,RE00_MSI_MSI_IMG_3A,DAP_MG2_10/RE00/GY/Georgetown,urn:eop:RE00:DAP_MG2_10:4513799,CDS,RE00,?,MSI,MSI_IMG_3A,NA,NA,RapidEye,002,,0,,,,,,,,,,,,,,,,,,,,,,,,,,001,PR,26-JUN-2010 15:26:09,0,26-JUN-2010 15:26:44,0,,,,,,,,,,,,30-SEP-2011 02:10:31,,,,,,,,,,,,,,,,,,,10.8.183406,GSC#AR#ESA#DAP_MG2_10#20100626#152626.xml,20-JUN-2011 09:39:02,,,,,,,,,,,,,,,,,,,,,,,,,,,7.16 -58.96 6.93 -58.95 6.94 -58.73 7.16 -58.73 7.16 -58.96 ,
,DE01_SLIM6_22_SL6_22P_1T,DAP_MG2_25/DC00/Sub-Sahara,urn:eop:DE01:DAP_MG2_25:DE01_SL6_22P_1T_20100303T105353_20100303T105450_DMI_0_1718-CP_815,CDS,DE01,?,SLIM6-22,SL6_22P_1T,NA,NA,DMCii,002,,0,,,,,,,,,,,,,,,,,,UNDEFINED,,,,,,,,001,PR,03-MAR-2010 10:54:21,0,03-MAR-2010 10:55:21,0,,,,,,,,,,,,11-OCT-2011 08:44:50,,,,,,,,,,,,,,,,,,,5.6.93269,GSC#AR#ESA#DAP_MG2_25#20100303#105421.xml,19-JUL-2011 12:51:02,,,,,,,,,,,,,,,,,,,,,,,,,,,15.98 17.93 15.53 14.86 12.47 15.66 12.9 18.67 15.98 17.93 ,
,ER02_AMI_SAR_IM__0P,DWH_MG1_AQUA_ADD_013b/ER00/GL/Greenland,urn:eop:ER02:DWH_MG1_AQUA_ADD_013b:ER02_SAR_IM__0P_19971124T135749_19971124T135806_UPA_13577_0000.ESA.tar,CDS,ER02,?,AMI,SAR_IM__0P,NA,NA,ESA,002,,13577,,,,,,,,,,,,,,,,,,UNDEFINED,,,,,,,,001,PR,24-NOV-1997 13:57:49,160,24-NOV-1997 13:58:06,540,,,,,,,,,,,,30-AUG-2012 07:26:50,,,,,,,,,,,,,,,,,,,9.10.127691,GSC#AR#ESA#DWH_MG1_AQUA_ADD_013b#20120829#090548.xml,30-AUG-2012 08:18:38,,,,,,,,,,,,,,,,,,,,,,,,,,,65.4 -38.49 66.39 -37.72 66.53 -38.82 66.64 -39.81 65.65 -40.51 65.53 -39.56 65.4 -38.49 ,
,SP05_HRG_HRG_THX__3,DAP_MG2b_01/Namur/UTM-WGS84,urn:eop::DAP_MG2b_01:00183756067,CDS,SP05,?,HRG,HRG_THX__3,NA,NA,SpotImage,002,,0,,,,,,,,,,,,,,,,,,,,,,,,,,001,PR,09-MAY-2008 10:43:43,0,09-MAY-2008 10:43:43,0,,,,,,,,,,,,13-JUN-2012 09:23:54,,,,,,,,,,,,,,,,,,,5.4.116996,GSC#AR#ESA#DAP_MG2b_01#20090327#130838.xml,18-JUL-2012 09:24:32,,,,,,,,,,,,,,,,,,,,,,,,,,,50.703 4.552 50.553 5.367 50.035 5.129 50.183 4.322 50.703 4.552 ,
,RS02_SAR_SAR_SW_SGF,DWH_MG1_CORE_11/RS02/BalticSea,urn:eop:RS02:DWH_MG1_CORE_11:RS2_20120425_155501_0076_SCWA_HHHV_SGF_193367_4994_7304720,CDS,RS02,?,SAR,SAR_SW_SGF,ScanSAR Wide,NA,TRS_GSI,002,,22782,,,,,,,SCWA,,,,,,,,,,,HH, HV,,,,,,,,001,PR,25-APR-2012 15:55:00,650,25-APR-2012 15:56:16,230,,,,,,,,,,,,25-APR-2012 16:13:15,,,,,,,,,,,,,,,,,,,6.12.115350,GSC#AR#ESA#DWH_MG1_CORE_11#20120425#161053.xml,25-APR-2012 16:13:49,,,,,,,,,,,,,,,,,,,,,,,,,,,61.69 20.03 62.63 29.96 58.22 31.12 57.33 22.41 61.69 20.03 ,60.15 26.14
,SP05_HRG_HRG_J____3,DAP_MG2b_01/Paris/WGS-UTM84,urn:eop:SPOT:DAP_MG2b_01:50392520708271110092J0,CDS,SP05,?,HRG,HRG_J____3,NA,NA,SpotImage,002,,0,,,,,,,,,,,,,,,,,,,,,,,,,,001,PR,27-AUG-2007 11:10:09,0,27-AUG-2007 11:10:09,0,,,,,,,,,,,,20-JUN-2012 13:44:43,,,,,,,,,,,,,,,,,,,1.23.119163,GSC#AR#ESA#DAP_MG2b_01#20100406#205135.xml,20-JUN-2012 14:07:17,,,,,,,,,,,,,,,,,,,,,,,,,,,48.821 1.663 48.63 2.533 48.117 2.27 48.306 1.408 48.821 1.663 ,
,NG01_SLIM_6_SL6_32T_1T,DAP_MG2_25/DC00/Mauritania,urn:eop:NG01:DAP_MG2_25%2FDC00%2FMauritania:NG01_SL6_32T_1T_20090720T091933_20090720T092012_DMC_0_085b,CDS,NG01,?,SLIM-6,SL6_32T_1T,NA,NA,DMCii,002,,0,,,,,,,,,,,,,,,,,,UNDEFINED,,,,,,,,001,PR,20-JUL-2009 09:19:53,0,20-JUL-2009 09:20:53,0,,,,,,,,,,,,22-SEP-2011 21:04:27,,,,,,,,,,,,,,,,,,,5.33.91778,GSC#AR#ESA#DAP_MG2_25#20090720#091953.xml,06-DEC-2010 18:38:01,,,,,,,,,,,,,,,,,,,,,,,,,,,22.59 -5.22 22.33 -6.72 20 -6.18 20.25 -4.7 22.59 -5.22 ,
,TX011_X_SAR_SAR_SM_MGD,DAP_MG1_25/TX01/SD/Juba,urn:eop:DLR:TSX-1.SAR.L1B:////TSX-1/SAR/L1B/NSG/TMSP/2010-08-18T16:05:27.27595/2010-08-18T16:05:36.27547/MGD/RE/OPER_01_01,CDS,TX01,1,X-SAR,SAR_SM_MGD,SM,NA,Infoterra,002,,17620,,,,,,,strip_012,,,,,,,,,,,HH,,,,,,,,001,PR,18-AUG-2010 16:05:27,275,18-AUG-2010 16:05:36,275,,,,,,,,,,,,14-SEP-2011 20:52:46,,,,,,,,,,,,,,,,,,,2.31.91460,GSC#AR#ESA#DAP_MG1_25#20100913#133149.xml,13-SEP-2010 14:26:01,,,,,,,,,,,,,,,,,,,,,,,,,,,4.65875 31.8738 5.22591 31.7639 5.17221 31.4848 4.6046 31.5934 4.65875 31.8738 ,
,EN01_ASAR_ASA_IMP_1P,DWH_MG1_RECO_ADD_013b/EN01/MX/Chiapas,urn:eop:EN01:DWH_MG1_RECO_ADD_013b:ASA_IMP_1PNUPA20100407_155936_000000162088_00226_42364_5000.N1,CDS,EN01,?,ASAR,ASA_IMP_1P,NA,NA,ESA,002,,42364,,,,,,,,,,,,,,,,,,VV,,,,,,,,001,PR,07-APR-2010 15:59:36,840,07-APR-2010 15:59:53,400,,,,,,,,,,,,21-SEP-2012 22:21:22,,,,,,,,,,,,,,,,,,,9.10.131213,GSC#AR#ESA#DWH_MG1_RECO_ADD_013b#20120921#150654.xml,21-SEP-2012 23:09:06,,,,,,,,,,,,,,,,,,,,,,,,,,,16.28 -89.72 17.26 -89.5 17.36 -90 17.47 -90.52 16.49 -90.73 16.38 -90.21 16.28 -89.72 ,
,RS02_SAR_SAR_SN_SGF,DAP_MG1_08/RS02/BalticSea,urn:eop:RS02:DAP_MG1_08:RS2_20100318_045603_0048_SCNA_HH_SCN_73938_0000_2983378,CDS,RS02,?,SAR,SAR_SN_SGF,ScanSAR Narrow,NA,TRS_GSI,002,,11785,,,,,,,SCNA,,,,,,,,,,,HH,,,,,,,,001,PR,18-MAR-2010 04:56:03,580,18-MAR-2010 04:56:48,690,,,,,,,,,,,,13-SEP-2011 15:52:49,,,,,,,,,,,,,,,,,,,2.26.91353,GSC#AR#ESA#DAP_MG1_08#20100414#105736.xml,14-APR-2010 10:57:36,,,,,,,,,,,,,,,,,,,,,,,,,,,61 21.24 60.38 26.86 57.77 25.48 58.37 20.27 61 21.24 ,59.43 23.58
,DE01_SLIM6_22_SL6_22S_1T,DAP_MG2_25/DC00/Sub-Sahara,urn:eop:DE01:DAP_MG2_25:DE01_SL6_22S_1T_20100725T081322_20100725T081403_DMI_0_1f40-CP_1298,CDS,DE01,?,SLIM6-22,SL6_22S_1T,NA,NA,DMCii,002,,0,,,,,,,,,,,,,,,,,,UNDEFINED,,,,,,,,001,PR,25-JUL-2010 08:14:20,0,25-JUL-2010 08:15:20,0,,,,,,,,,,,,10-OCT-2011 15:46:51,,,,,,,,,,,,,,,,,,,10.30.185079,GSC#AR#ESA#DAP_MG2_25#20100725#081420.xml,18-JUL-2011 09:14:02,,,,,,,,,,,,,,,,,,,,,,,,,,,9.76 37.74 9.22 34.71 6.95 35.19 7.51 38.21 9.76 37.74 ,
,RS02_SAR_SAR_SW_SGF,DAP_MG1_12/RS02/Eurarctic1,urn:eop:RS02:DAP_MG1_12:RS2_20100331_051207_0080_SCWA_HHHV_SCW_75517_0000_3112381,CDS,RS02,?,SAR,SAR_SW_SGF,ScanSAR Wide,NA,TRS_GSI,002,,11971,,,,,,,SCWA,,,,,,,,,,,HH, HV,,,,,,,,001,PR,31-MAR-2010 05:12:07,450,31-MAR-2010 05:13:22,880,,,,,,,,,,,,14-SEP-2011 13:43:53,,,,,,,,,,,,,,,,,,,10.31.181227,GSC#AR#ESA#DAP_MG1_12#20100414#110044.xml,14-APR-2010 11:00:44,,,,,,,,,,,,,,,,,,,,,,,,,,,78.54 19.46 76.94 40.3 72.89 32.35 74.15 16.43 78.54 19.46 ,75.92 28.58
,RS02_SAR_SAR_SW_SGF,DAP_MG1_08/RS02/BalticSea,urn:eop:RS02:DAP_MG1_08:RS2_20110313_045554_0075_SCWA_HHHV_SGF_123620_3013_5002442,CDS,RS02,?,SAR,SAR_SW_SGF,ScanSAR Wide,NA,TRS_GSI,002,,16930,,,,,,,SCWA,,,,,,,,,,,HH, HV,,,,,,,,001,PR,13-MAR-2011 04:55:53,660,13-MAR-2011 04:57:09,50,,,,,,,,,,,,27-SEP-2011 10:07:56,,,,,,,,,,,,,,,,,,,1.16.92164,GSC#AR#ESA#DAP_MG1_08#20110313#051429.xml,13-MAR-2011 05:14:29,,,,,,,,,,,,,,,,,,,,,,,,,,,62.41 17.7 61.47 27.51 57.12 25.17 58 16.55 62.41 17.7 ,59.9 22.07
,DE01_SLIM6_22_SL6_22S_1T,DAP_MG2_25/DC00/BurkinaFaso,urn:eop:DE01:DAP_MG2_25%2FDC00%2FBurkinaFaso:DE0015c1s_L1T,CDS,DE01,?,SLIM6-22,SL6_22S_1T,NA,NA,DMCii,002,,0,,,,,,,,,,,,,,,,,,UNDEFINED,,,,,,,,001,PR,17-DEC-2009 10:39:42,0,17-DEC-2009 10:40:42,0,,,,,,,,,,,,22-SEP-2011 14:29:01,,,,,,,,,,,,,,,,,,,6.26.91800,GSC#AR#ESA#DAP_MG2_25#20091217#103942.xml,09-DEC-2010 16:40:01,,,,,,,,,,,,,,,,,,,,,,,,,,,13.15 -2.07 12.68 -4.55 10.58 -4.1 11.02 -1.64 13.15 -2.07 ,
,RS02_SAR_SAR_SW_SGF,DWH_MG1_CORE_11/RS02/GL_Contingency,urn:eop:RS02:DWH_MG1_CORE_11:RS2_20120519_110533_0076_SCWA_HHHV_SGF_197677_5905_7399249,CDS,RS02,?,SAR,SAR_SW_SGF,ScanSAR Wide,NA,TRS_GSI,002,,23122,,,,,,,SCWA,,,,,,,,,,,HH, HV,,,,,,,,001,PR,19-MAY-2012 11:05:32,690,19-MAY-2012 11:06:48,460,,,,,,,,,,,,19-MAY-2012 21:06:13,,,,,,,,,,,,,,,,,,,7.1.117885,GSC#AR#ESA#DWH_MG1_CORE_11#20120519#125042.xml,19-MAY-2012 21:40:06,,,,,,,,,,,,,,,,,,,,,,,,,,,76.91 -69.97 75.46 -51.22 71.31 -57.87 72.49 -72.5 76.91 -69.97 ,74.31 -61.7
,FO022_RSI_RSI_MS___3,DAP_MG2b_28/FO02/European_AFS,urn:eop:FORMOSAT2:MULTISPECTRAL_8m:SCENE F2 M 2011/04/08 10:27:15.6 1735-0185 2593,CDS,FO02,2,RSI,RSI_MS___3,RSI_MS_,NA,SpotImage,002,,35196,,1,,,,,,-13.632,6.983,39.416,146.986,,,,,,,,,,,,,,,001,PR,08-APR-2011 10:27:15,0,08-APR-2011 10:27:15,0,,,,,,,,,,,,29-SEP-2011 11:16:27,,,,,,,,,,,,,,,,,,,4.12.94741,GSC#AR#ESA#DAP_MG2b_28#20110520#142702.xml,26-OCT-2011 15:00:21,,,,,,,,,,,,,,,,,,,,,,,,,,,-1.418 52.808 -1.038 52.759 -1.508 52.597 -1.129 52.548 -1.418 52.808 ,-1.273 52.678
,RS02_SAR_SAR_SW_SGF,DWH_MG1_CORE_11/RS02/GL/East_Coast_Contingency,urn:eop:RS02:DWH_MG1_CORE_11:RS2_20120615_075544_0076_SCWA_HHHV_SGF_202399_7193_7489309,CDS,RS02,?,SAR,SAR_SW_SGF,ScanSAR Wide,NA,TRS_GSI,002,,23506,,,,,,,SCWA,,,,,,,,,,,HH, HV,,,,,,,,001,PR,15-JUN-2012 07:55:43,770,15-JUN-2012 07:56:59,560,,,,,,,,,,,,15-JUN-2012 08:32:59,,,,,,,,,,,,,,,,,,,7.10.120548,GSC#AR#ESA#DWH_MG1_CORE_11#20120615#083112.xml,15-JUN-2012 08:33:32,,,,,,,,,,,,,,,,,,,,,,,,,,,79.95 -20.13 78.19 2.9 74.2 -6.59 75.54 -23.8 79.95 -20.13 ,77.28 -10.17
,RS02_SAR_SAR_UF_SGF,DAP_MG1_06/FLOOD/CALLID_GERS_043_01,urn:eop:RS02:DAP_MG1_06:RS2_OK13404_PK145650_DK140154_U6_20100630_042606_HH_SGF,CDS,RS02,?,SAR,SAR_UF_SGF,Ultrafine,NA,MDA_GSI,002,,13271,,,,,,,U6,,,,,,,,,,,HH,,,,,,,,001,PR,30-JUN-2010 04:26:06,520,30-JUN-2010 04:26:10,490,,,,,,,,,,,,14-SEP-2011 15:09:48,,,,,,,,,,,,,,,,,,,10.14.181209,GSC#AR#ESA#DAP_MG1_06#20100630#115450.xml,01-JUL-2010 09:32:01,,,,,,,,,,,,,,,,,,,,,,,,,,,48.29 26.78 48.09 26.72 48.06 27.01 48.25 27.07 48.29 26.78 ,48.17 26.89
,EN01_MERIS_MER_FRS_1P,DWH_MG3_FRES_ADD_020b/EN01/Europe,urn:eop:EN01:DWH_MG3_FRES_ADD_020b:MER_FRS_1PNUPA20090305_105504_000001012077_00037_36664_2739.N1,CDS,EN01,?,MERIS,MER_FRS_1P,NA,NA,ESA,002,,36664,,,,,,,,,,,,,,,,,,,,,,,,,,001,PR,05-MAR-2009 10:55:04,410,05-MAR-2009 10:56:45,780,,,,,,,,,,,,05-SEP-2012 12:19:03,,,,,,,,,,,,,,,,,,,8.13.128497,GSC#AR#ESA#DWH_MG3_FRES_ADD_020b#20120905#120055.xml,05-SEP-2012 12:38:30,,,,,,,,,,,,,,,,,,,,,,,,,,,49.67 4.08 55.31 8.08 57.17 -0.39 58.4 -9.59 52.47 -11.43 51.32 -3.44 49.67 4.08 ,
,EN01_ASAR_ASA_IMP_1P,DWH_MG1_RECO_ADD_013b/EN01/MX/Chiapas,urn:eop:EN01:DWH_MG1_RECO_ADD_013b:ASA_IMP_1PNUPA20040517_160247_000000162026_00498_11574_4948.N1,CDS,EN01,?,ASAR,ASA_IMP_1P,NA,NA,ESA,002,,11574,,,,,,,,,,,,,,,,,,VV,,,,,,,,001,PR,17-MAY-2004 16:02:47,510,17-MAY-2004 16:03:04,80,,,,,,,,,,,,20-SEP-2012 12:31:21,,,,,,,,,,,,,,,,,,,6.25.132425,GSC#AR#ESA#DWH_MG1_RECO_ADD_013b#20120920#085633.xml,20-SEP-2012 13:12:18,,,,,,,,,,,,,,,,,,,,,,,,,,,16.28 -90.44 17.26 -90.22 17.37 -90.72 17.47 -91.24 16.49 -91.45 16.38 -90.93 16.28 -90.44 ,
,RE00_MSI_MSI_IMG_3A,DAP_MG2_10/RE00/BO/Bolivia,urn:eop:RE00:DAP_MG2_10:4400317,CDS,RE00,?,MSI,MSI_IMG_3A,NA,NA,RapidEye,002,,0,,,,,,,,,,,,,,,,,,,,,,,,,,001,PR,01-MAY-2010 15:17:56,0,01-MAY-2010 15:19:02,0,,,,,,,,,,,,03-OCT-2011 12:37:21,,,,,,,,,,,,,,,,,,,1.8.92605,GSC#AR#ESA#DAP_MG2_10#20100501#151808.xml,21-JUN-2011 13:34:02,,,,,,,,,,,,,,,,,,,,,,,,,,,-14.53 -64.11 -14.76 -64.11 -14.76 -63.88 -14.53 -63.88 -14.53 -64.11 ,
,EN01_MERIS_MER_FRS_1P,DWH_MG3_FRES_ADD_020b/EN01/Europe,urn:eop:EN01:DWH_MG3_FRES_ADD_020b:MER_FRS_1PNUPA20120217_103035_000001013111_00396_52134_3170.N1,CDS,EN01,?,MERIS,MER_FRS_1P,NA,NA,ESA,002,,52134,,,,,,,,,,,,,,,,,,,,,,,,,,001,PR,17-FEB-2012 10:30:35,70,17-FEB-2012 10:32:16,440,,,,,,,,,,,,12-SEP-2012 19:21:37,,,,,,,,,,,,,,,,,,,10.3.245142,GSC#AR#ESA#DWH_MG3_FRES_ADD_020b#20120912#115714.xml,12-SEP-2012 19:36:23,,,,,,,,,,,,,,,,,,,,,,,,,,,48.26 10.73 53.97 14.46 55.68 6.55 56.84 -1.94 50.87 -3.71 49.79 3.7 48.26 10.73 ,
,RE00_MSI_MSI_IMG_3A,DAP_MG2_10/RE00/MZ/Beira,urn:eop:RE00:DAP_MG2_10:5477437,CDS,RE00,?,MSI,MSI_IMG_3A,NA,NA,RapidEye,002,,0,,,,,,,,,,,,,,,,,,,,,,,,,,001,PR,24-DEC-2010 08:43:00,0,24-DEC-2010 08:44:14,0,,,,,,,,,,,,29-SEP-2011 09:20:50,,,,,,,,,,,,,,,,,,,9.9.93683,GSC#AR#ESA#DAP_MG2_10#20101224#084333.xml,29-SEP-2011 09:21:05,,,,,,,,,,,,,,,,,,,,,,,,,,,-19.95 34.37 -20.18 34.37 -20.18 34.61 -19.95 34.61 -19.95 34.37 ,
,RS02_SAR_SAR_Sx_SLC,DAP_MG1_18/RS02/IT/Calabria,urn:eop:RS02:DAP_MG1_18:RS2_OK15707_PK187783_DK159243_S3_20110124_050203_HH_SLC,CDS,RS02,?,SAR,SAR_Sx_SLC,Standard,NA,MDA_GSI,002,,16244,,,,,,,S3,,,,,,,,,,,HH,,,,,,,,001,PR,24-JAN-2011 05:02:03,990,24-JAN-2011 05:02:21,70,,,,,,,,,,,,20-SEP-2011 09:35:24,,,,,,,,,,,,,,,,,,,7.14.91766,GSC#AR#ESA#DAP_MG1_18#20110125#070638.xml,25-JAN-2011 08:10:01,,,,,,,,,,,,,,,,,,,,,,,,,,,40.34 15.95 39.34 15.71 39.15 16.96 40.15 17.22 40.34 15.95 ,39.75 16.46
,EN01_MERIS_MER_FRS_1P,DWH_MG3_AQUA_ADD_018b/EN01/Mekong,urn:eop:EN01:DWH_MG3_AQUA_ADD_018b:MER_FRS_1PNPDE20120216_060912_000001973111_00379_52117_1949.N1,CDS,EN01,?,MERIS,MER_FRS_1P,NA,NA,ESA,002,,52117,,,,,,,,,,,,,,,,,,,,,,,,,,001,PR,16-FEB-2012 06:09:12,920,16-FEB-2012 06:12:30,20,,,,,,,,,,,,16-FEB-2012 15:08:06,,,,,,,,,,,,,,,,,,,4.0.106112,GSC#AR#ESA#DWH_MG3_AQUA_ADD_018b#20120216#080655.xml,16-FEB-2012 15:11:28,,,,,,,,,,,,,,,,,,,,,,,,,,,33.82 70.23 34.14 70.35 34.72 70.56 35.31 70.78 35.9 71 36.42 71.2 37.01 71.43 37.59 71.66 38.17 71.89 38.76 72.13 39.34 72.37 39.92 72.62 40.5 72.87 41.08 73.12 41.66 73.38 42.24 73.64 42.82 73.91 43.39 74.18 43.97 74.46 44.55 74.74 45.12 75.03 45.21 75.08 46.67 68.42 47.73 61.45 47.63 61.42 47.04 61.27 46.45 61.12 45.86 60.98 45.27 60.83 44.67 60.69 44.08 60.54 43.49 60.4 42.9 60.26 42.3 60.12 41.71 59.98 41.12 59.85 40.52 59.71 39.93 59.58 39.34 59.44 38.74 59.31 38.21 59.19 37.61 59.06 37.02 58.93 36.42 58.8 36.1 58.72 35.1 64.56 33.82 70.23 ,
,RS02_SAR_SAR_SW_SGF,DWH_MG1_CORE_11/RS02/Eurarctic,urn:eop:RS02:DWH_MG1_CORE_11:RS2_20111011_050733_0075_SCWA_HHHV_SGF_159209_9130_6662791,CDS,RS02,?,SAR,SAR_SW_SGF,ScanSAR Wide,NA,TRS_GSI,002,,19960,,,,,,,SCWA,,,,,,,,,,,HH, HV,,,,,,,,001,PR,11-OCT-2011 05:07:32,600,11-OCT-2011 05:08:48,30,,,,,,,,,,,,31-OCT-2011 11:38:11,,,,,,,,,,,,,,,,,,,5.30.95130,GSC#AR#ESA#DWH_MG1_CORE_11#20111011#051753.xml,31-OCT-2011 11:40:35,,,,,,,,,,,,,,,,,,,,,,,,,,,80.86 22.96 78.97 47.61 75.07 36.93 76.47 18.74 80.86 22.96 ,78.17 33.51
,DE01_SLIM6_22_SL6_22P_1T,DAP_MG2_25/DC00/Sub-Sahara,urn:eop:DE01:DAP_MG2_25:DE01_SL6_22P_1T_20100530T084805_20100530T084835_DMI_0_1be1-CP_1323,CDS,DE01,?,SLIM6-22,SL6_22P_1T,NA,NA,DMCii,002,,0,,,,,,,,,,,,,,,,,,UNDEFINED,,,,,,,,001,PR,30-MAY-2010 08:48:20,0,30-MAY-2010 08:49:20,0,,,,,,,,,,,,11-OCT-2011 07:58:19,,,,,,,,,,,,,,,,,,,6.11.93256,GSC#AR#ESA#DAP_MG2_25#20100530#084820.xml,19-JUL-2011 10:13:03,,,,,,,,,,,,,,,,,,,,,,,,,,,3.27 19.38 2.85 16.32 -0.19 16.96 0.23 20.01 3.27 19.38 ,
,RS02_SAR_SAR_SW_SGF,DAP_MG1_12/RS02/Eurarctic1,urn:eop:RS02:DAP_MG1_12:RS2_20110103_050330_0076_SCWA_HHHV_SGF_114323_1203_4590466,CDS,RS02,?,SAR,SAR_SW_SGF,ScanSAR Wide,NA,TRS_GSI,002,,15944,,,,,,,SCWA,,,,,,,,,,,HH, HV,,,,,,,,001,PR,03-JAN-2011 05:03:29,560,03-JAN-2011 05:04:45,870,,,,,,,,,,,,20-SEP-2011 07:50:14,,,,,,,,,,,,,,,,,,,9.24.93023,GSC#AR#ESA#DAP_MG1_12#20110103#053021.xml,03-JAN-2011 05:30:21,,,,,,,,,,,,,,,,,,,,,,,,,,,79.82 22.76 78.08 45.58 74.05 36.2 75.37 19.18 79.82 22.76 ,77.14 32.63
,RS02_SAR_SAR_SW_SGF,DWH_MG1_CORE_11/RS02/GL_Contingency,urn:eop:RS02:DWH_MG1_CORE_11:RS2_20120518_145018_0076_SCWA_HH_SGF_197538_5875_7399237,CDS,RS02,?,SAR,SAR_SW_SGF,ScanSAR Wide,NA,TRS_GSI,002,,23110,,,,,,,SCWA,,,,,,,,,,,HH,,,,,,,,001,PR,18-MAY-2012 14:50:18,320,18-MAY-2012 14:51:34,10,,,,,,,,,,,,18-MAY-2012 16:41:40,,,,,,,,,,,,,,,,,,,11.27.8613,GSC#AR#ESA#DWH_MG1_CORE_11#20120518#150213.xml,18-MAY-2012 17:18:13,,,,,,,,,,,,,,,,,,,,,,,,,,,82.53 -9.99 85.63 25.73 81.32 38.81 79.39 12.86 82.53 -9.99 ,83.21 18.05
,RS02_SAR_SAR_SW_SGF,DWH_MG1_CORE_11/RS02/GL/East_Coast_Contingency,urn:eop:RS02:DWH_MG1_CORE_11:RS2_20120607_082905_0076_SCWA_HHHV_SGF_200958_6776_7456230,CDS,RS02,?,SAR,SAR_SW_SGF,ScanSAR Wide,NA,TRS_GSI,002,,23392,,,,,,,SCWA,,,,,,,,,,,HH, HV,,,,,,,,001,PR,07-JUN-2012 08:29:04,690,07-JUN-2012 08:30:20,220,,,,,,,,,,,,07-JUN-2012 10:49:00,,,,,,,,,,,,,,,,,,,11.16.10486,GSC#AR#ESA#DWH_MG1_CORE_11#20120607#104440.xml,07-JUN-2012 10:49:31,,,,,,,,,,,,,,,,,,,,,,,,,,,80.77 -27.53 78.87 -2.9 74.96 -13.49 76.37 -31.69 80.77 -27.53 ,78.08 -16.94
,RE00_MSI_MSI_IMG_3A,DAP_MG2_10/RE00/BD/Bangladesh,urn:eop:RE00:DAP_MG2_10:4665749,CDS,RE00,?,MSI,MSI_IMG_3A,NA,NA,RapidEye,002,,0,,,,,,,,,,,,,,,,,,,,,,,,,,001,PR,30-OCT-2010 05:26:03,0,30-OCT-2010 05:26:28,0,,,,,,,,,,,,29-SEP-2011 11:54:26,,,,,,,,,,,,,,,,,,,4.26.92337,GSC#AR#ESA#DAP_MG2_10#20101030#052624.xml,15-JUN-2011 15:05:02,,,,,,,,,,,,,,,,,,,,,,,,,,,21.91 91.6 21.69 91.6 21.69 91.84 21.92 91.84 21.91 91.6 ,
,SP05_HRG_HRG_J____3,DAP_MG2b_01/Bordeaux/UTM-WGS84,urn:eop:SPOT:DAP_MG2b_01:00185797006,CDS,SP05,?,HRG,HRG_J____3,NA,NA,SpotImage,002,,0,,,,,,,,,,,,,,,,,,,,,,,,,,001,PR,06-JUN-2006 11:10:50,0,06-JUN-2006 11:10:50,0,,,,,,,,,,,,28-JUN-2012 08:50:10,,,,,,,,,,,,,,,,,,,8.13.119312,GSC#AR#ESA#DAP_MG2b_01#20090707#192315.xml,28-JUN-2012 08:53:15,,,,,,,,,,,,,,,,,,,,,,,,,,,44.973 -1.35 44.824 -0.609 44.303 -0.82 44.452 -1.554 44.973 -1.35 ,
,RS02_SAR_SAR_SN_SGF,DWH_MG1_SAFE_ADD_005b/FLOOD/GERS_118_04,urn:eop:RS02:DWH_MG1_SAFE_ADD_005b:RS2_OK27470_PK274524_DK249824_SCNB_20090211_030529_HH_SGF,CDS,RS02,?,SAR,SAR_SN_SGF,ScanSAR Narrow,NA,MDA_GSI,002,,6067,,,,,,,SCNB,,,,,,,,,,,HH,,,,,,,,001,PR,11-FEB-2009 03:05:29,910,11-FEB-2009 03:06:15,250,,,,,,,,,,,,26-JAN-2012 12:43:53,,,,,,,,,,,,,,,,,,,8.8.103765,GSC#AR#ESA#DWH_MG1_SAFE_ADD_005b#20120125#110650.xml,26-JAN-2012 12:49:51,,,,,,,,,,,,,,,,,,,,,,,,,,,-23.5 33.02 -26.15 32.19 -26.88 35.08 -24.21 35.84 -23.5 33.02 ,-25.18 34.03
,RS02_SAR_SAR_SW_SGF,DAP_MG1_12/RS02/Eurarctic1,urn:eop:RS02:DAP_MG1_12:RS2_20100118_083211_0080_SCWA_HHHV_SCW_67024_0000_2842993,CDS,RS02,?,SAR,SAR_SW_SGF,ScanSAR Wide,NA,TRS_GSI,002,,10944,,,,,,,SCWA,,,,,,,,,,,HH, HV,,,,,,,,001,PR,18-JAN-2010 08:32:11,440,18-JAN-2010 08:33:26,470,,,,,,,,,,,,14-SEP-2011 11:41:53,,,,,,,,,,,,,,,,,,,1.29.91227,GSC#AR#ESA#DAP_MG1_12#20100414#104112.xml,14-APR-2010 10:41:12,,,,,,,,,,,,,,,,,,,,,,,,,,,83.32 -24.09 80.95 5.92 77.35 -9.43 78.98 -30.92 83.32 -24.09 ,80.52 -11.83
,RS02_SAR_SAR_SW_SGF,DAP_MG1_08/RS02/BalticSea,urn:eop:RS02:DAP_MG1_08:RS2_20110412_052003_0076_SCWA_HH_SGF_128012_3976_5162993,CDS,RS02,?,SAR,SAR_SW_SGF,ScanSAR Wide,NA,TRS_GSI,002,,17359,,,,,,,SCWA,,,,,,,,,,,HH,,,,,,,,001,PR,12-APR-2011 05:20:02,720,12-APR-2011 05:21:18,330,,,,,,,,,,,,27-SEP-2011 23:51:21,,,,,,,,,,,,,,,,,,,5.13.92179,GSC#AR#ESA#DAP_MG1_08#20110412#055244.xml,12-APR-2011 05:55:03,,,,,,,,,,,,,,,,,,,,,,,,,,,66.16 12.45 65.16 23.62 60.82 20.76 61.74 11.15 66.16 12.45 ,63.64 17.44
,NG01_SLIM_6_SL6_32T_1T,DAP_MG2_25/DC00/Niger,urn:eop:NG01:DAP_MG2_25%2FDC00%2FNiger:NG01_SL6_32T_1T_20090925T081534_20090925T081613_DMC_0_08e4,CDS,NG01,?,SLIM-6,SL6_32T_1T,NA,NA,DMCii,002,,0,,,,,,,,,,,,,,,,,,UNDEFINED,,,,,,,,001,PR,25-SEP-2009 08:15:54,0,25-SEP-2009 08:16:54,0,,,,,,,,,,,,21-SEP-2011 13:27:00,,,,,,,,,,,,,,,,,,,1.14.91749,GSC#AR#ESA#DAP_MG2_25#20090925#081554.xml,07-DEC-2010 09:43:01,,,,,,,,,,,,,,,,,,,,,,,,,,,20.23 11.39 19.68 8.14 17.35 8.66 17.91 11.86 20.23 11.39 ,
,RS02_SAR_SAR_Sx_SLC,DAP_MG1_41/RS02/CH/St_Moritz,urn:eop:RS02:DAP_MG1_41:RS2_OK20859_PK218026_DK202311_S3_20100914_171110_HH_HV_SLC,CDS,RS02,?,SAR,SAR_Sx_SLC,Standard,NA,MDA_GSI,002,,14365,,,,,,,S3,,,,,,,,,,,HH, HV,,,,,,,,001,PR,14-SEP-2010 17:11:10,820,14-SEP-2010 17:11:26,920,,,,,,,,,,,,28-SEP-2011 18:33:52,,,,,,,,,,,,,,,,,,,2.23.92411,GSC#AR#ESA#DAP_MG1_41#20110525#214534.xml,26-MAY-2011 09:05:02,,,,,,,,,,,,,,,,,,,,,,,,,,,46.57 8.81 45.65 9.08 45.83 10.46 46.75 10.21 46.57 8.81 ,46.2 9.64
,RS02_SAR_SAR_SW_SGF,DAP_MG1_08/RS02/BalticSea,urn:eop:RS02:DAP_MG1_08:RS2_20100415_160822_0080_SCWA_HH_SCW_77536_0000_3458552,CDS,RS02,?,SAR,SAR_SW_SGF,ScanSAR Wide,NA,TRS_GSI,002,,12192,,,,,,,SCWA,,,,,,,,,,,HH,,,,,,,,001,PR,15-APR-2010 16:08:23,120,15-APR-2010 16:09:38,280,,,,,,,,,,,,13-SEP-2011 15:07:09,,,,,,,,,,,,,,,,,,,6.28.91132,GSC#AR#ESA#DAP_MG1_08#20100415#185402.xml,15-APR-2010 18:54:02,,,,,,,,,,,,,,,,,,,,,,,,,,,65.25 14.48 66.25 25.75 61.86 27.05 60.93 17.35 65.25 14.48 ,63.79 21.49
,TX011_X_SAR_SAR_HS_SSC,DAP_MG1_24/TX01/UA/Lviv,urn:eop:DLR:TSX-1.SAR.L1B:////TSX-1/SAR/L1B/NSG/TMSP/2010-07-20T04:25:51.81869/2010-07-20T04:25:52.59474/SSC/UNDEFINED/OPER_01_01,CDS,TX01,1,X-SAR,SAR_HS_SSC,HS,NA,Infoterra,002,,17172,,,,,,,spot_093,,,,,,,,,,,HH,,,,,,,,001,PR,20-JUL-2010 04:25:51,818,20-JUL-2010 04:25:52,594,,,,,,,,,,,,14-SEP-2011 21:12:24,,,,,,,,,,,,,,,,,,,3.19.91213,GSC#AR#ESA#DAP_MG1_24#20100920#071856.xml,20-SEP-2010 08:10:01,,,,,,,,,,,,,,,,,,,,,,,,,,,49.8021 23.9785 49.7535 23.9687 49.7454 24.0629 49.7939 24.0726 49.8021 23.9785 ,
,TX011_X_SAR_SAR_SL_EEC,DWH_MG1_GEOP_ADD_008b/OTHER/GEOP_002_04,urn:eop:DLR:TSX-1.SAR.L1B:////TSX-1/SAR/L1B/NSG/TMSP/2011-09-26T08:20:48.05709/2011-09-26T08:20:49.52119/EEC/RE/OPER_01_01,CDS,TX01,1,X-SAR,SAR_SL_EEC,SL,NA,Infoterra,002,,23748,,,,,,,spot_074,,,,,,,,,,,HH,,,,,,,,001,PR,26-SEP-2011 08:20:48,57,26-SEP-2011 08:20:49,521,,,,,,,,,,,,28-OCT-2011 13:04:15,,,,,,,,,,,,,,,,,,,10.1.188404,GSC#AR#ESA#DWH_MG1_GEOP_ADD_008b#20110926#163901.xml,28-OCT-2011 13:06:11,,,,,,,,,,,,,,,,,,,,,,,,,,,-22.834 -43.2679 -22.9248 -43.294 -22.9498 -43.1813 -22.8583 -43.158 -22.834 -43.2679 ,
,UK02_SLIM6_22_SL6_22P_1T,DAP_MG2_25/DC00/Namibia,urn:eop:UK02:DAP_MG2_25:UK02_SL6_22P_1T_20100205T100149_20100205T100239_DMC_0_0186,CDS,UK02,?,SLIM6-22,SL6_22P_1T,NA,NA,DMCii,002,,0,,,,,,,,,,,,,,,,,,UNDEFINED,,,,,,,,001,PR,05-FEB-2010 10:02:14,0,05-FEB-2010 10:03:14,0,,,,,,,,,,,,09-OCT-2011 02:04:16,,,,,,,,,,,,,,,,,,,8.21.93078,GSC#AR#ESA#DAP_MG2_25#20100205#100214.xml,12-JUL-2011 13:51:01,,,,,,,,,,,,,,,,,,,,,,,,,,,-16.66 14.02 -17.37 10.99 -20.39 11.71 -19.66 14.8 -16.66 14.02 ,
,NG01_SLIM_6_SL6_32T_1T,DAP_MG2_25/DC00/Niger,urn:eop:NG01:DAP_MG2_25%2FDC00%2FNiger:NG01_SL6_32T_1T_20090529T081004_20090529T081041_DMC_0_07f3,CDS,NG01,?,SLIM-6,SL6_32T_1T,NA,NA,DMCii,002,,0,,,,,,,,,,,,,,,,,,UNDEFINED,,,,,,,,001,PR,29-MAY-2009 08:10:23,0,29-MAY-2009 08:11:23,0,,,,,,,,,,,,21-SEP-2011 12:59:25,,,,,,,,,,,,,,,,,,,4.4.91768,GSC#AR#ESA#DAP_MG2_25#20090529#081023.xml,07-DEC-2010 09:40:01,,,,,,,,,,,,,,,,,,,,,,,,,,,15.09 15.9 14.63 13.08 12.4 13.57 12.86 16.37 15.09 15.9 ,
,SP04_HRVIR_HIR_I____3,DAP_MG2-3_01/PL/Coverage_1,urn:eop::DAP_MG2-3_01:40672480808191012012I0,CDS,SP04,?,HRVIR,HIR_I____3,NA,NA,SpotImage,002,,0,,,,,,,,,,,,,,,,,,,,,,,,,,001,PR,19-AUG-2008 10:12:00,0,19-AUG-2008 10:12:00,0,,,,,,,,,,,,04-MAY-2012 12:33:00,,,,,,,,,,,,,,,,,,,9.20.114577,GSC#AR#ESA#DAP_MG2-3_01#20110214#182825.xml,18-JUL-2012 09:24:32,,,,,,,,,,,,,,,,,,,,,,,,,,,50.702 16.133 50.188 15.872 50.033 16.73 50.545 16.999 50.702 16.133 ,
,RS02_SAR_SAR_SW_SGF,DAP_MG1_12/RS02/Eurarctic1,urn:eop:RS02:DAP_MG1_12:RS2_20110217_081131_0076_SCWA_HHHV_SGF_120282_2392_4945269,CDS,RS02,?,SAR,SAR_SW_SGF,ScanSAR Wide,NA,TRS_GSI,002,,16589,,,,,,,SCWA,,,,,,,,,,,HH, HV,,,,,,,,001,PR,17-FEB-2011 08:11:30,760,17-FEB-2011 08:12:46,410,,,,,,,,,,,,26-SEP-2011 09:32:24,,,,,,,,,,,,,,,,,,,3.15.92020,GSC#AR#ESA#DAP_MG1_12#20110217#093629.xml,17-FEB-2011 09:36:29,,,,,,,,,,,,,,,,,,,,,,,,,,,82.93 -19.75 80.65 9.31 76.96 -5.19 78.54 -26.02 82.93 -19.75 ,80.14 -7.79
,SP04_HRVIR_HIR_I____3,DAP_MG2_13/SP04/NorthCorsica,urn:eop::DAP_MG2_13:40592641006281004082I0,CDS,SP04,?,HRVIR,HIR_I____3,NA,NA,SpotImage,002,,0,,,,,,,,,,,,,,,,,,,,,,,,,,001,PR,28-JUN-2010 10:04:07,0,28-JUN-2010 10:04:07,0,,,,,,,,,,,,04-MAY-2012 13:52:36,,,,,,,,,,,,,,,,,,,6.27.116237,GSC#AR#ESA#DAP_MG2_13#20100702#152351.xml,18-JUL-2012 09:24:32,,,,,,,,,,,,,,,,,,,,,,,,,,,43.021 9.239 42.496 9.065 42.392 9.789 42.916 9.968 43.021 9.239 ,
,RS02_SAR_SAR_SW_SGF,DWH_MG1_CORE_11/RS02/AQ/Antarctic,urn:eop:RS02:DWH_MG1_CORE_11:RS2_OK25658_PK259300_DK243430_SCWA_20111227_001224_HH_HV_SGF,CDS,RS02,?,SAR,SAR_SW_SGF,ScanSAR Wide,NA,MDA_GSI,002,,21057,,,,,,,SCWA,,,,,,,,,,,HH, HV,,,,,,,,001,PR,27-DEC-2011 00:12:24,200,27-DEC-2011 00:13:39,910,,,,,,,,,,,,02-JAN-2012 07:22:00,,,,,,,,,,,,,,,,,,,3.12.101262,GSC#AR#ESA#DWH_MG1_CORE_11#20111227#011819.xml,02-JAN-2012 07:23:53,,,,,,,,,,,,,,,,,,,,,,,,,,,-63.65 -69.7 -67.68 -64.5 -64.91 -54.74 -61.23 -60.75 -63.65 -69.7 ,-64.37 62.42
,UK02_SLIM6_22_SL6_22P_1T,DAP_MG2_25/DC00/CentralAfricanRepublic,urn:eop:UK02:DAP_MG2_25%2FDC00%2FCentralAfricanRepublic:UK02_SL6_22P_1T_20100128T085437_20100128T085527_DMC_0_016e,CDS,UK02,?,SLIM6-22,SL6_22P_1T,NA,NA,DMCii,002,,0,,,,,,,,,,,,,,,,,,UNDEFINED,,,,,,,,001,PR,28-JAN-2010 08:55:02,0,28-JAN-2010 08:56:02,0,,,,,,,,,,,,21-SEP-2011 15:07:28,,,,,,,,,,,,,,,,,,,6.18.91725,GSC#AR#ESA#DAP_MG2_25#20100128#085502.xml,03-DEC-2010 17:35:01,,,,,,,,,,,,,,,,,,,,,,,,,,,7.18 19.49 6.66 16.7 2.98 17.48 3.54 20.25 7.18 19.49 ,
,DE01_SLIM6_22_SL6_22S_1T,DAP_MG2_25/DC00/Sub-Sahara,urn:eop:DE01:DAP_MG2_25:DE01_SL6_22S_1T_20100417T093636_20100417T093655_DMI_0_19da-CP_522,CDS,DE01,?,SLIM6-22,SL6_22S_1T,NA,NA,DMCii,002,,0,,,,,,,,,,,,,,,,,,UNDEFINED,,,,,,,,001,PR,17-APR-2010 09:36:45,0,17-APR-2010 09:37:45,0,,,,,,,,,,,,10-OCT-2011 16:10:57,,,,,,,,,,,,,,,,,,,8.10.93217,GSC#AR#ESA#DAP_MG2_25#20100417#093645.xml,18-JUL-2011 14:14:03,,,,,,,,,,,,,,,,,,,,,,,,,,,-6.21 16.98 -6.65 14.9 -9.76 15.55 -9.35 17.67 -6.21 16.98 ,
,RS02_SAR_SAR_SW_SGF,DWH_MG1_CORE_11/RS02/Eurarctic,urn:eop:RS02:DWH_MG1_CORE_11:RS2_20111013_073037_0076_SCWA_HHHV_SGF_159571_9182_6662809,CDS,RS02,?,SAR,SAR_SW_SGF,ScanSAR Wide,NA,TRS_GSI,002,,19990,,,,,,,SCWA,,,,,,,,,,,HH, HV,,,,,,,,001,PR,13-OCT-2011 07:30:37,140,13-OCT-2011 07:31:52,810,,,,,,,,,,,,31-OCT-2011 14:01:27,,,,,,,,,,,,,,,,,,,4.27.95217,GSC#AR#ESA#DWH_MG1_CORE_11#20111013#074937.xml,31-OCT-2011 16:00:53,,,,,,,,,,,,,,,,,,,,,,,,,,,79.71 -14.08 77.98 8.53 73.98 -0.65 75.3 -17.62 79.71 -14.08 ,77.05 -4.28
,SP05_HRG_HRG_THX__3,DAP_MG2b_02/Dublin/UTM-WGS84,urn:eop:SPOT:DAP_MG2b_02:50172430909121144372B4,CDS,SP05,?,HRG,HRG_THX__3,NA,NA,SpotImage,002,,0,,,,,,,,,,,,,,,,,,,,,,,,,,001,PR,12-SEP-2009 11:44:40,0,12-SEP-2009 11:44:40,0,,,,,,,,,,,,28-JUN-2012 14:41:20,,,,,,,,,,,,,,,,,,,2.16.119093,GSC#AR#ESA#DAP_MG2b_02#20100218#000000.xml,28-JUN-2012 14:51:10,,,,,,,,,,,,,,,,,,,,,,,,,,,52.862 -7.324 52.841 -6.195 52.166 -6.238 52.187 -7.35 52.862 -7.324 ,
,BJ01_SLIM_6_SL6_32S_1T,DAP_MG2_25/DC00/Niger,urn:eop:BJ01:DAP_MG2_25%2FDC00%2FNiger:BJ01_SL6_32S_1T_20090809T094116_20090809T094207_DMC_0_0b44,CDS,BJ01,?,SLIM-6,SL6_32S_1T,NA,NA,DMCii,002,,0,,,,,,,,,,,,,,,,,,UNDEFINED,,,,,,,,001,PR,09-AUG-2009 09:41:42,0,09-AUG-2009 09:42:42,0,,,,,,,,,,,,21-SEP-2011 12:02:43,,,,,,,,,,,,,,,,,,,2.22.91914,GSC#AR#ESA#DAP_MG2_25#20090809#094142.xml,07-DEC-2010 09:44:02,,,,,,,,,,,,,,,,,,,,,,,,,,,18.04 4.32 17.58 1.07 14.55 1.79 15 4.99 18.04 4.32 ,
,RS02_SAR_SAR_SW_SGF,DAP_MG1_12/RS02/Eurarctic1,urn:eop:RS02:DAP_MG1_12:RS2_20101014_074621_0080_SCWA_HHHV_SCW_102940_0000_4183279,CDS,RS02,?,SAR,SAR_SW_SGF,ScanSAR Wide,NA,TRS_GSI,002,,14788,,,,,,,SCWA,,,,,,,,,,,HH, HV,,,,,,,,001,PR,14-OCT-2010 07:46:21,810,14-OCT-2010 07:47:37,510,,,,,,,,,,,,14-SEP-2011 22:03:34,,,,,,,,,,,,,,,,,,,10.14.181258,GSC#AR#ESA#DAP_MG1_12#20101014#080828.xml,14-OCT-2010 08:08:28,,,,,,,,,,,,,,,,,,,,,,,,,,,82.87 -13.58 80.61 15.35 76.91 0.96 78.48 -19.77 82.87 -13.58 ,80.08 -1.66
,UK01_SLIM_6_SL6_32T_1T,DAP_MG2_25/DC00/Sudan,urn:eop:UK01:DAP_MG2_25%2FDC00%2FSudan:UK01_SL6_32T_1T_20090306T073456_20090306T073534_DMC_0_0e84,CDS,UK01,?,SLIM-6,SL6_32T_1T,NA,NA,DMCii,002,,0,,,,,,,,,,,,,,,,,,UNDEFINED,,,,,,,,001,PR,06-MAR-2009 07:35:15,0,06-MAR-2009 07:36:15,0,,,,,,,,,,,,21-SEP-2011 14:47:35,,,,,,,,,,,,,,,,,,,3.22.91693,GSC#AR#ESA#DAP_MG2_25#20090306#073515.xml,07-DEC-2010 11:20:01,,,,,,,,,,,,,,,,,,,,,,,,,,,6.82 27.55 6.3 24.52 3.99 25.02 4.51 28.04 6.82 27.55 ,
,SP05_HRG_HRG_THX__3,DAP_MG2b_01/Breda/UTM-WGS84,urn:eop:SPOT:DAP_MG2b_01:00187157022,CDS,SP05,?,HRG,HRG_THX__3,NA,NA,SpotImage,002,,0,,,,,,,,,,,,,,,,,,,,,,,,,,001,PR,11-OCT-2005 10:45:40,0,11-OCT-2005 10:45:40,0,,,,,,,,,,,,28-JUN-2012 09:45:23,,,,,,,,,,,,,,,,,,,3.30.120021,GSC#AR#ESA#DAP_MG2b_01#20090921#155708.xml,28-JUN-2012 09:58:46,,,,,,,,,,,,,,,,,,,,,,,,,,,51.906 4.182 51.764 5.048 51.244 4.82 51.385 3.966 51.906 4.182 ,
,TX011_X_SAR_SAR_SL_GEC,DWH_MG1_GMOS_ADD_008a/OTHER/RGR_013_11,urn:eop:DLR:TSX-1.SAR.L1B:////TSX-1/SAR/L1B/NSG/TMSP/2011-07-24T14:48:29.51998/2011-07-24T14:48:30.99854/GEC/RE/OPER_01_01,CDS,TX01,1,X-SAR,SAR_SL_GEC,SL,NA,Infoterra,002,,22781,,,,,,,spot_021,,,,,,,,,,,VV,,,,,,,,001,PR,24-JUL-2011 14:48:29,519,24-JUL-2011 14:48:30,998,,,,,,,,,,,,11-OCT-2011 11:16:41,,,,,,,,,,,,,,,,,,,5.18.93264,GSC#AR#ESA#DWH_MG1_GMOS_ADD_008a#20110724#174701.xml,25-JUL-2011 06:57:01,,,,,,,,,,,,,,,,,,,,,,,,,,,6.57484 49.2952 6.6682 49.2773 6.64743 49.1698 6.55404 49.1876 6.57484 49.2952 ,
,RS02_SAR_SAR_SW_SGF,DAP_MG1_08/RS02/BalticSea,urn:eop:RS02:DAP_MG1_08:RS2_20100109_160810_0080_SCWA_HH_SCW_66089_0000_2842927,CDS,RS02,?,SAR,SAR_SW_SGF,ScanSAR Wide,NA,TRS_GSI,002,,10820,,,,,,,SCWA,,,,,,,,,,,HH,,,,,,,,001,PR,09-JAN-2010 16:08:10,790,09-JAN-2010 16:09:25,300,,,,,,,,,,,,14-SEP-2011 11:36:35,,,,,,,,,,,,,,,,,,,6.33.91156,GSC#AR#ESA#DAP_MG1_08#20100414#103859.xml,14-APR-2010 10:38:59,,,,,,,,,,,,,,,,,,,,,,,,,,,64.75 14.91 65.74 25.93 61.38 27.19 60.47 17.67 64.75 14.91 ,63.29 21.74
,DE01_SLIM6_22_SL6_22P_1T,DAP_MG2_25/DC00/Sub-Sahara,urn:eop:DE01:DAP_MG2_25:DE01_SL6_22P_1T_20101226T090349_20101226T090428_DMI_0_2730-CP_1123,CDS,DE01,?,SLIM6-22,SL6_22P_1T,NA,NA,DMCii,002,,0,,,,,,,,,,,,,,,,,,UNDEFINED,,,,,,,,001,PR,26-DEC-2010 09:04:08,0,26-DEC-2010 09:05:08,0,,,,,,,,,,,,10-OCT-2011 20:04:12,,,,,,,,,,,,,,,,,,,10.15.185118,GSC#AR#ESA#DAP_MG2_25#20101226#090408.xml,18-JUL-2011 15:01:02,,,,,,,,,,,,,,,,,,,,,,,,,,,9.49 -10.4 9.05 -13.52 6.01 -12.85 6.45 -9.75 9.49 -10.4 ,
,RS02_SAR_SAR_SW_SGF,DWH_MG1_CORE_11/RS02/BalticSea_Contingency,urn:eop:RS02:DWH_MG1_CORE_11:RS2_20120425_155613_0076_SCWA_HHHV_SGF_193367_4996_7368591,CDS,RS02,?,SAR,SAR_SW_SGF,ScanSAR Wide,NA,TRS_GSI,002,,22782,,,,,,,SCWA,,,,,,,,,,,HH, HV,,,,,,,,001,PR,25-APR-2012 15:56:12,830,25-APR-2012 15:57:28,400,,,,,,,,,,,,11-MAY-2012 14:18:02,,,,,,,,,,,,,,,,,,,4.22.117572,GSC#AR#ESA#DWH_MG1_CORE_11#20120425#161839.xml,11-MAY-2012 15:00:16,,,,,,,,,,,,,,,,,,,,,,,,,,,65.83 17.26 66.84 28.72 62.43 30.05 61.5 20.23 65.83 17.26 ,64.37 24.42
,SP05_HRG_HRG_T____3,DAP_MG2b_01/Vilnius/UTM-WGS84,urn:eop:SPOT:DAP_MG2b_01:00182793041,CDS,SP05,?,HRG,HRG_T____3,NA,NA,SpotImage,002,,0,,,,,,,,,,,,,,,,,,,,,,,,,,001,PR,20-JUN-2007 09:35:49,0,20-JUN-2007 09:35:49,0,,,,,,,,,,,,20-JUN-2012 14:30:16,,,,,,,,,,,,,,,,,,,4.4.121591,GSC#AR#ESA#DAP_MG2b_01#20090206#021225.xml,20-JUN-2012 15:04:21,,,,,,,,,,,,,,,,,,,,,,,,,,,55.029 25.228 54.86 26.124 54.348 25.83 54.515 24.944 55.029 25.228 ,
,RS02_SAR_SAR_SW_SGF,DWH_MG1_CORE_11/RS02/GL/East_Coast_Contingency,urn:eop:RS02:DWH_MG1_CORE_11:RS2_20120602_073444_0076_SCWA_HHHV_SGF_200083_6514_7456154,CDS,RS02,?,SAR,SAR_SW_SGF,ScanSAR Wide,NA,TRS_GSI,002,,23320,,,,,,,SCWA,,,,,,,,,,,HH, HV,,,,,,,,001,PR,02-JUN-2012 07:34:44,190,02-JUN-2012 07:35:59,970,,,,,,,,,,,,02-JUN-2012 08:17:56,,,,,,,,,,,,,,,,,,,1.30.117511,GSC#AR#ESA#DWH_MG1_CORE_11#20120602#081537.xml,02-JUN-2012 08:18:27,,,,,,,,,,,,,,,,,,,,,,,,,,,79.94 -14.9 78.18 8.11 74.19 -1.36 75.53 -18.56 79.94 -14.9 ,77.27 -4.95
,EN01_ASAR_ASA_IMP_1P,DWH_MG1_RECO_ADD_013b/EN01/MX/Chiapas,urn:eop:EN01:DWH_MG1_RECO_ADD_013b:ASA_IMP_1PNUPA20041111_160831_000000162032_00040_14122_4960.N1,CDS,EN01,?,ASAR,ASA_IMP_1P,NA,NA,ESA,002,,14122,,,,,,,,,,,,,,,,,,VV,,,,,,,,001,PR,11-NOV-2004 16:08:31,520,11-NOV-2004 16:08:48,90,,,,,,,,,,,,20-SEP-2012 13:04:47,,,,,,,,,,,,,,,,,,,7.2.132790,GSC#AR#ESA#DWH_MG1_RECO_ADD_013b#20120920#100227.xml,20-SEP-2012 14:13:22,,,,,,,,,,,,,,,,,,,,,,,,,,,16.28 -91.87 17.26 -91.65 17.37 -92.15 17.47 -92.67 16.49 -92.88 16.38 -92.36 16.28 -91.87 ,
,RS02_SAR_SAR_SW_SGF,DAP_MG1_12/RS02/Eurarctic1,urn:eop:RS02:DAP_MG1_12:RS2_20101104_073341_0076_SCWA_HHHV_SGF_106149_9226_4316553,CDS,RS02,?,SAR,SAR_SW_SGF,ScanSAR Wide,NA,TRS_GSI,002,,15088,,,,,,,SCWA,,,,,,,,,,,HH, HV,,,,,,,,001,PR,04-NOV-2010 07:33:40,730,04-NOV-2010 07:34:57,60,,,,,,,,,,,,16-SEP-2011 23:46:38,,,,,,,,,,,,,,,,,,,8.25.91450,GSC#AR#ESA#DAP_MG1_12#20101104#080026.xml,04-NOV-2010 08:00:26,,,,,,,,,,,,,,,,,,,,,,,,,,,83.13 -9.88 80.81 19.69 77.11 4.62 78.71 -16.43 83.13 -9.88 ,80.31 2.18
,EN01_MERIS_MER_FRS_1P,DWH_MG3_FRES_ADD_020b/EN01/Europe,urn:eop:EN01:DWH_MG3_FRES_ADD_020b:MER_FRS_1PNUPA20090331_103802_000001012077_00409_37036_2817.N1,CDS,EN01,?,MERIS,MER_FRS_1P,NA,NA,ESA,002,,37036,,,,,,,,,,,,,,,,,,,,,,,,,,001,PR,31-MAR-2009 10:38:02,960,31-MAR-2009 10:39:44,330,,,,,,,,,,,,06-SEP-2012 11:16:13,,,,,,,,,,,,,,,,,,,5.20.127697,GSC#AR#ESA#DWH_MG3_FRES_ADD_020b#20120906#105409.xml,06-SEP-2012 11:19:58,,,,,,,,,,,,,,,,,,,,,,,,,,,48.79 7.86 54.46 11.71 56.28 3.4 57.5 -5.59 51.56 -7.37 50.43 0.46 48.79 7.86 ,
,RS02_SAR_SAR_SW_SGF,DAP_MG1_08/RS02/BalticSea,urn:eop:RS02:DAP_MG1_08:RS2_20100106_155540_0080_SCWA_HH_SCW_65787_0000_2839943,CDS,RS02,?,SAR,SAR_SW_SGF,ScanSAR Wide,NA,TRS_GSI,002,,10777,,,,,,,SCWA,,,,,,,,,,,HH,,,,,,,,001,PR,06-JAN-2010 15:55:40,390,06-JAN-2010 15:56:54,50,,,,,,,,,,,,13-SEP-2011 17:18:47,,,,,,,,,,,,,,,,,,,9.17.92532,GSC#AR#ESA#DAP_MG1_08#20100414#103821.xml,14-APR-2010 10:38:21,,,,,,,,,,,,,,,,,,,,,,,,,,,64.98 17.88 65.98 28.98 61.67 30.24 60.75 20.65 64.98 17.88 ,63.56 24.75
,GE01_GIS_GIS_PM4_GE,DAP_MG2b_19/EG01/CD/Mumba,urn:eop:GE01:DAP_MG2b_19:Mumba,CDS,GE01,?,GIS,GIS_PM4_GE,NA,NA,e-GEOS,002,,0,,,,,,,,,,,,,,,,,,,,,,,,,,001,PR,26-JUN-2010 08:33:00,0,26-JUN-2010 08:33:00,0,,,,,,,,,,,,23-AUG-2012 07:46:44,,,,,,,,,,,,,,,,,,,5.1.124115,GSC#AR#ESA#DAP_MG2b_19#20100628#235959.xml,23-AUG-2012 08:18:51,,,,,,,,,,,,,,,,,,,,,,,,,,,-1.52413 28.8406 -1.52405 28.9314 -1.6153 28.9315 -1.61538 28.8407 -1.52413 28.8406 ,
,GE01_GIS_GIS_PM4_GE,DAP_MG2b_19/IK02/CD/MumbaBibatama,urn:eop:GE01:DAP_MG2b_19:Mumba,CDS,GE01,?,GIS,GIS_PM4_GE,NA,NA,e-GEOS,002,,0,,,,,,,,,,,,,,,,,,,,,,,,,,001,PR,26-JUN-2010 08:33:00,0,26-JUN-2010 08:33:00,0,,,,,,,,,,,,23-AUG-2012 07:46:44,,,,,,,,,,,,,,,,,,,5.1.124115,GSC#AR#ESA#DAP_MG2b_19#20100628#235959.xml,23-AUG-2012 08:18:51,,,,,,,,,,,,,,,,,,,,,,,,,,,-1.52413 28.8406 -1.52405 28.9314 -1.6153 28.9315 -1.61538 28.8407 -1.52413 28.8406 ,
,RS02_SAR_SAR_Sx_SLC,DWH_MG1_SUBC_ADD_014a/RS02/NL/Zeeland,urn:eop:RS02:DWH_MG1_SUBC_ADD_014a:RS2_OK23219_PK241927_DK241497_S3_20111217_060147_HH_HV_SLC,CDS,RS02,?,SAR,SAR_Sx_SLC,Standard,NA,MDA_GSI,002,,20918,,,,,,,S3,,,,,,,,,,,HH, HV,,,,,,,,001,PR,17-DEC-2011 06:01:47,210,17-DEC-2011 06:02:02,780,,,,,,,,,,,,19-DEC-2011 07:36:05,,,,,,,,,,,,,,,,,,,3.4.99919,GSC#AR#ESA#DWH_MG1_SUBC_ADD_014a#20111218#080713.xml,19-DEC-2011 07:37:27,,,,,,,,,,,,,,,,,,,,,,,,,,,52.26 3.34 51.36 3.07 51.17 4.61 52.07 4.91 52.26 3.34 ,51.71 3.98
,RS02_SAR_SAR_SW_SGF,DAP_MG1_12/RS02/Eurarctic1,urn:eop:RS02:DAP_MG1_12:RS2_20101221_062242_0076_SCWA_HHHV_SGF_112686_0874_4391666,CDS,RS02,?,SAR,SAR_SW_SGF,ScanSAR Wide,NA,TRS_GSI,002,,15759,,,,,,,SCWA,,,,,,,,,,,HH, HV,,,,,,,,001,PR,21-DEC-2010 06:22:41,530,21-DEC-2010 06:23:57,840,,,,,,,,,,,,19-SEP-2011 16:30:08,,,,,,,,,,,,,,,,,,,6.7.91598,GSC#AR#ESA#DAP_MG1_12#20101221#070808.xml,21-DEC-2010 07:08:08,,,,,,,,,,,,,,,,,,,,,,,,,,,81.83 5.47 79.78 32.09 75.92 19.73 77.4 0.46 81.83 5.47 ,79.08 16.67
,RS02_SAR_SAR_SW_SGF,DWH_MG1_CORE_11/RS02/Eurarctic,urn:eop:RS02:DWH_MG1_CORE_11:RS2_20111028_065156_0075_SCWA_HHHV_SGF_162364_9598_6662913,CDS,RS02,?,SAR,SAR_SW_SGF,ScanSAR Wide,NA,TRS_GSI,002,,20204,,,,,,,SCWA,,,,,,,,,,,HH, HV,,,,,,,,001,PR,28-OCT-2011 06:51:55,970,28-OCT-2011 06:53:11,400,,,,,,,,,,,,28-OCT-2011 07:28:20,,,,,,,,,,,,,,,,,,,3.16.94780,GSC#AR#ESA#DWH_MG1_CORE_11#20111028#071641.xml,28-OCT-2011 07:32:24,,,,,,,,,,,,,,,,,,,,,,,,,,,82.76 -0.16 80.52 28.53 76.82 14.41 78.39 -6.19 82.76 -0.16 ,79.99 11.71
,RS02_SAR_SAR_SW_SGF,DAP_MG1_12/RS02/Eurarctic1,urn:eop:RS02:DAP_MG1_12:RS2_20101027_044630_0080_SCWA_HHHV_SCW_104849_0000_4183387,CDS,RS02,?,SAR,SAR_SW_SGF,ScanSAR Wide,NA,TRS_GSI,002,,14972,,,,,,,SCWA,,,,,,,,,,,HH, HV,,,,,,,,001,PR,27-OCT-2010 04:46:30,320,27-OCT-2010 04:47:45,760,,,,,,,,,,,,16-SEP-2011 23:11:50,,,,,,,,,,,,,,,,,,,6.13.91401,GSC#AR#ESA#DAP_MG1_12#20101027#050642.xml,27-OCT-2010 05:06:42,,,,,,,,,,,,,,,,,,,,,,,,,,,80.58 27.84 78.73 51.98 74.8 41.7 76.18 23.82 80.58 27.84 ,77.9 38.22
,SP05_HRG_HRG_T____3,DAP_MG2b_02/Riga/UTM-WGS84,urn:eop:SPOT:DAP_MG2b_02:50772331004190953112B4,CDS,SP05,?,HRG,HRG_T____3,NA,NA,SpotImage,002,,0,,,,,,,,,,,,,,,,,,,,,,,,,,001,PR,19-APR-2010 09:53:14,0,19-APR-2010 09:53:14,0,,,,,,,,,,,,29-JUN-2012 09:19:07,,,,,,,,,,,,,,,,,,,9.12.120255,GSC#AR#ESA#DAP_MG2b_02#20100505#102643.xml,29-JUN-2012 09:39:29,,,,,,,,,,,,,,,,,,,,,,,,,,,57.492 24.184 57.299 25.151 56.793 24.802 56.984 23.846 57.492 24.184 ,
,EN01_MERIS_MER_FRS_1P,DWH_MG3_AQUA_ADD_018b/EN01/Mekong,urn:eop:EN01:DWH_MG3_AQUA_ADD_018b:MER_FRS_1PNPDE20120215_070618_000001943111_00365_52103_1570.N1,CDS,EN01,?,MERIS,MER_FRS_1P,NA,NA,ESA,002,,52103,,,,,,,,,,,,,,,,,,,,,,,,,,001,PR,15-FEB-2012 07:06:18,780,15-FEB-2012 07:09:30,260,,,,,,,,,,,,15-FEB-2012 13:16:25,,,,,,,,,,,,,,,,,,,7.22.134921,GSC#AR#ESA#DWH_MG3_AQUA_ADD_018b#20120114#000000.xml,11-OCT-2012 08:20:59,,,,,,,,,,,,,,,,,,,,,,,,,,,24.93 -10.35 25.3 -10.24 25.89 -10.06 26.48 -9.88 27.07 -9.7 27.66 -9.52 28.25 -9.33 28.84 -9.14 29.43 -8.95 30.02 -8.76 30.61 -8.56 31.2 -8.37 31.79 -8.17 32.38 -7.96 32.96 -7.76 33.55 -7.55 34.14 -7.34 34.72 -7.12 35.31 -6.91 35.9 -6.68 36.17 -6.58 37.48 -12.41 38.49 -18.43 38.21 -18.49 37.61 -18.63 37.02 -18.76 36.42 -18.89 35.83 -19.02 35.24 -19.15 34.64 -19.28 34.04 -19.4 33.45 -19.53 32.85 -19.66 32.26 -19.78 31.66 -19.91 31.07 -20.04 30.47 -20.16 29.87 -20.29 29.28 -20.41 28.68 -20.54 28.08 -20.66 27.49 -20.78 27.12 -20.86 26.12 -15.56 24.93 -10.35 ,
,RS02_SAR_SAR_UF_SGF,DAP_MG1_06/FLOOD/CALLID_GERS_043_01,urn:eop:RS02:DAP_MG1_06:RS2_OK13404_PK145653_DK140157_U22_20100706_161250_HH_SGF,CDS,RS02,?,SAR,SAR_UF_SGF,Ultrafine,NA,MDA_GSI,002,,13364,,,,,,,U22,,,,,,,,,,,HH,,,,,,,,001,PR,06-JUL-2010 16:12:50,280,06-JUL-2010 16:12:54,870,,,,,,,,,,,,14-SEP-2011 16:55:50,,,,,,,,,,,,,,,,,,,9.23.92569,GSC#AR#ESA#DAP_MG1_06#20100706#170846.xml,06-JUL-2010 17:56:01,,,,,,,,,,,,,,,,,,,,,,,,,,,48.11 26.81 47.9 26.86 47.93 27.15 48.14 27.1 48.11 26.81 ,48.02 26.98
,RS02_SAR_SAR_SW_SGF,DWH_MG1_CORE_11/RS02/Eurarctic,urn:eop:RS02:DWH_MG1_CORE_11:RS2_20120515_230638_0076_SCWA_HHHV_SGF_197012_5758_7350778,CDS,RS02,?,SAR,SAR_SW_SGF,ScanSAR Wide,NA,TRS_GSI,002,,23072,,,,,,,SCWA,,,,,,,,,,,HH, HV,,,,,,,,001,PR,15-MAY-2012 23:06:38,360,15-MAY-2012 23:07:54,20,,,,,,,,,,,,16-MAY-2012 02:43:37,,,,,,,,,,,,,,,,,,,5.26.114138,GSC#AR#ESA#DWH_MG1_CORE_11#20120516#024139.xml,16-MAY-2012 02:44:11,,,,,,,,,,,,,,,,,,,,,,,,,,,80.41 112.63 78.58 136.47 74.63 126.39 76 108.7 80.41 112.63 ,77.73 122.88
,FO022_RSI_RSI_MS___3,DAP_MG2b_28/FO02/European_AFS,urn:eop:FORMOSAT2:MULTISPECTRAL_8m:SCENE F2 M 2011/03/23 08:44:23.9 0035-0181 2296,CDS,FO02,2,RSI,RSI_MS___3,RSI_MS_,NA,SpotImage,002,,34971,,1,,,,,,-20.059,8.411,31.927,146.666,,,,,,,,,,,,,,,001,PR,23-MAR-2011 08:44:23,0,23-MAR-2011 08:44:23,0,,,,,,,,,,,,29-SEP-2011 11:02:14,,,,,,,,,,,,,,,,,,,2.14.94884,GSC#AR#ESA#DAP_MG2b_28#20110520#170031.xml,26-OCT-2011 15:02:21,,,,,,,,,,,,,,,,,,,,,,,,,,,22.768 53.61 23.193 53.562 22.685 53.399 23.108 53.351 22.768 53.61 ,22.94 53.481
,EO01_NA30_EO1_OPT_1B,DAP_MG2b_03/ES00/Alpine,urn:eop:EO01:DAP_MG2b_03:1A-MBT1-e1486141,CDS,EO01,?,NA30,EO1_OPT_1B,NA,NA,Imagesat,002,,0,,,,,,,,,,,,,,,,,,,,,,,,,,001,PR,01-SEP-2009 09:45:05,0,01-SEP-2009 09:45:33,0,,,,,,,,,,,,19-NOV-2012 11:03:45,,,,,,,,,,,,,,,,,,,5.1.135061,GSC#AR#ESA#DAP_MG2b_03#20090901#184527.xml,19-NOV-2012 11:41:59,,,,,,,,,,,,,,,,,,,,,,,,,,,47.53 10.97 47.53 11.18 47.4 11.18 47.4 10.97 47.53 10.97 ,
